[
  {
    "dateTime": 1693045247277,
    "videoStreamUrl": "https://cdn3.wowza.com/5/TkUxaGpnVUNpME1Z/KDOT/5-135-0114-2-I-135at37th.stream/playlist.m3u8",
    "latitude": 37.754158,
    "referrer": "https://www.kandrive.gov/",
    "locationId": "KS_WI",
    "previewImageUrl": "https://kscam.carsprogram.org/snapshots/GEN_5-135-0114-2-I-135at37th.jpeg",
    "name": "789-0024 I-135 at 37th Temp.",
    "targetCompressionRatio": 35,
    "id": 11513,
    "longitude": -97.320971
  },
  {
    "dateTime": 1693045247277,
    "videoStreamUrl": "https://cdn3.wowza.com/5/VE5YZ3J3eUtPL1I4/KDOT/2-070-2910-C-DMS_I-70atMilfordExit291.stream/playlist.m3u8",
    "latitude": 38.998732,
    "referrer": "https://www.kandrive.gov/",
    "locationId": "KS_RU",
    "previewImageUrl": "https://kscam.carsprogram.org/snapshots/GEN_2-070-2910-C-DMS_I-70atMilfordExit291.jpeg",
    "name": "DMS_I-70 at Milford Exit 291",
    "targetCompressionRatio": 35,
    "id": 11466,
    "longitude": -96.934179
  },
  {
    "dateTime": 1693045247277,
    "videoStreamUrl": "https://cdn3.wowza.com/5/VE5YZ3J3eUtPL1I4/KDOT/6-050-0680-2-US-50atGardenCityEBCCTV.stream/playlist.m3u8",
    "latitude": 38.003541,
    "referrer": "https://www.kandrive.gov/",
    "locationId": "KS_RU",
    "previewImageUrl": "https://kscam.carsprogram.org/snapshots/GEN_6-050-0680-2-US-50atGardenCityEBCCTV.jpeg",
    "name": "DMS_US-50 at Garden City EB",
    "targetCompressionRatio": 35,
    "id": 11403,
    "longitude": -100.844975
  },
  {
    "dateTime": 1693045247277,
    "videoStreamUrl": "https://cdn3.wowza.com/5/VE5YZ3J3eUtPL1I4/KDOT/5-050-2360-2-US-50atHutchinsonEBCCTV.stream/playlist.m3u8",
    "latitude": 38.010801,
    "referrer": "https://www.kandrive.gov/",
    "locationId": "KS_RU",
    "previewImageUrl": "https://kscam.carsprogram.org/snapshots/GEN_5-050-2360-2-US-50atHutchinsonEBCCTV.jpeg",
    "name": "DMS_US-50 at Hutchinson EB",
    "targetCompressionRatio": 35,
    "id": 11405,
    "longitude": -98.006807
  },
  {
    "dateTime": 1703608281171,
    "videoStreamUrl": "https://cdn3.wowza.com/5/VE5YZ3J3eUtPL1I4/KDOT/5-050-2670-2-US-50atNewtonEBCCTV.stream/playlist.m3u8",
    "latitude": 38.028277,
    "referrer": "https://www.kandrive.gov/",
    "locationId": "KS_RU",
    "previewImageUrl": "https://kscam.carsprogram.org/snapshots/GEN_5-050-2670-2-US-50atNewtonEBCCTV.jpeg",
    "name": "DMS_US-50 at Newton EB",
    "targetCompressionRatio": 35,
    "id": 13497,
    "longitude": -97.437965
  },
  {
    "dateTime": 1693045247277,
    "videoStreamUrl": "https://cdn3.wowza.com/5/VE5YZ3J3eUtPL1I4/KDOT/5-054-1060-2-US-54atGreensburgEBCCTV.stream/playlist.m3u8",
    "latitude": 37.606188,
    "referrer": "https://www.kandrive.gov/",
    "locationId": "KS_RU",
    "previewImageUrl": "https://kscam.carsprogram.org/snapshots/GEN_5-054-1060-2-US-54atGreensburgEBCCTV.jpeg",
    "name": "DMS_US-54 at Greensburg WB",
    "targetCompressionRatio": 35,
    "id": 11410,
    "longitude": -99.325128
  },
  {
    "dateTime": 1693045247277,
    "videoStreamUrl": "https://cdn3.wowza.com/5/VE5YZ3J3eUtPL1I4/KDOT/5-054-1750-2-US-54atKingmanWBCCTV.stream/playlist.m3u8",
    "latitude": 37.660524,
    "referrer": "https://www.kandrive.gov/",
    "locationId": "KS_RU",
    "previewImageUrl": "https://kscam.carsprogram.org/snapshots/GEN_5-054-1750-2-US-54atKingmanWBCCTV.jpeg",
    "name": "DMS_US-54 at Kingman WB",
    "targetCompressionRatio": 35,
    "id": 11413,
    "longitude": -98.07504
  },
  {
    "dateTime": 1693045247277,
    "videoStreamUrl": "https://cdn3.wowza.com/5/VE5YZ3J3eUtPL1I4/KDOT/6-054-0130-2-US-54atLiberalWBCCTV.stream/playlist.m3u8",
    "latitude": 37.09851,
    "referrer": "https://www.kandrive.gov/",
    "locationId": "KS_RU",
    "previewImageUrl": "https://kscam.carsprogram.org/snapshots/GEN_6-054-0130-2-US-54atLiberalWBCCTV.jpeg",
    "name": "DMS_US-54 at Liberal WB",
    "targetCompressionRatio": 35,
    "id": 11407,
    "longitude": -100.805762
  },
  {
    "dateTime": 1693045247277,
    "videoStreamUrl": "https://cdn3.wowza.com/5/VE5YZ3J3eUtPL1I4/KDOT/6-054-0420-2-US-54atMeadeEBCCTV.stream/playlist.m3u8",
    "latitude": 37.285316,
    "referrer": "https://www.kandrive.gov/",
    "locationId": "KS_RU",
    "previewImageUrl": "https://kscam.carsprogram.org/snapshots/GEN_6-054-0420-2-US-54atMeadeEBCCTV.jpeg",
    "name": "DMS_US-54 at Meade EB",
    "targetCompressionRatio": 35,
    "id": 11408,
    "longitude": -100.370412
  },
  {
    "dateTime": 1693045247277,
    "videoStreamUrl": "https://cdn3.wowza.com/5/VE5YZ3J3eUtPL1I4/KDOT/5-054-1350-2-US-54atPrattEBCCTV.stream/playlist.m3u8",
    "latitude": 37.64221,
    "referrer": "https://www.kandrive.gov/",
    "locationId": "KS_RU",
    "previewImageUrl": "https://kscam.carsprogram.org/snapshots/GEN_5-054-1350-2-US-54atPrattEBCCTV.jpeg",
    "name": "DMS_US-54 at Pratt EB",
    "targetCompressionRatio": 35,
    "id": 11411,
    "longitude": -98.798353
  },
  {
    "dateTime": 1693045247277,
    "videoStreamUrl": "https://cdn3.wowza.com/5/TkUxaGpnVUNpME1Z/KDOT/5-135-0078-2-I-135at11th.stream/playlist.m3u8",
    "latitude": 37.704344,
    "referrer": "https://www.kandrive.gov/",
    "locationId": "KS_WI",
    "previewImageUrl": "https://kscam.carsprogram.org/snapshots/GEN_5-135-0078-2-I-135at11th.jpeg",
    "name": "I-135 at 11th",
    "targetCompressionRatio": 35,
    "id": 11507,
    "longitude": -97.318329
  },
  {
    "dateTime": 1693045247277,
    "videoStreamUrl": "https://cdn3.wowza.com/5/TkUxaGpnVUNpME1Z/KDOT/5-135-0080-2-I-135at13th.stream/playlist.m3u8",
    "latitude": 37.707831,
    "referrer": "https://www.kandrive.gov/",
    "locationId": "KS_WI",
    "previewImageUrl": "https://kscam.carsprogram.org/snapshots/GEN_5-135-0080-2-I-135at13th.jpeg",
    "name": "I-135 at 13th",
    "targetCompressionRatio": 35,
    "id": 11508,
    "longitude": -97.320367
  },
  {
    "dateTime": 1693045247277,
    "videoStreamUrl": "https://cdn3.wowza.com/5/TkUxaGpnVUNpME1Z/KDOT/5-135-0085-2-I-135at17thSt.stream/playlist.m3u8",
    "latitude": 37.7166,
    "referrer": "https://www.kandrive.gov/",
    "locationId": "KS_WI",
    "previewImageUrl": "https://kscam.carsprogram.org/snapshots/GEN_5-135-0085-2-I-135at17thSt.jpeg",
    "name": "I-135 at 17th",
    "targetCompressionRatio": 35,
    "id": 11509,
    "longitude": -97.3219
  },
  {
    "dateTime": 1693045247277,
    "videoStreamUrl": "https://cdn3.wowza.com/5/TkUxaGpnVUNpME1Z/KDOT/5-135-0090-2-I-135at21st.stream/playlist.m3u8",
    "latitude": 37.722895,
    "referrer": "https://www.kandrive.gov/",
    "locationId": "KS_WI",
    "previewImageUrl": "https://kscam.carsprogram.org/snapshots/GEN_5-135-0090-2-I-135at21st.jpeg",
    "name": "I-135 at 21st",
    "targetCompressionRatio": 35,
    "id": 11510,
    "longitude": -97.318373
  },
  {
    "dateTime": 1693045247277,
    "videoStreamUrl": "https://cdn3.wowza.com/5/TkUxaGpnVUNpME1Z/KDOT/5-135-0100-2-I-135at29th.stream/playlist.m3u8",
    "latitude": 37.735241,
    "referrer": "https://www.kandrive.gov/",
    "locationId": "KS_WI",
    "previewImageUrl": "https://kscam.carsprogram.org/snapshots/GEN_5-135-0100-2-I-135at29th.jpeg",
    "name": "I-135 at 29th",
    "targetCompressionRatio": 35,
    "id": 11511,
    "longitude": -97.316887
  },
  {
    "dateTime": 1693045247277,
    "videoStreamUrl": "https://cdn3.wowza.com/5/TkUxaGpnVUNpME1Z/KDOT/5-135-0068-2-I-135at2nd.stream/playlist.m3u8",
    "latitude": 37.690091,
    "referrer": "https://www.kandrive.gov/",
    "locationId": "KS_WI",
    "previewImageUrl": "https://kscam.carsprogram.org/snapshots/GEN_5-135-0068-2-I-135at2nd.jpeg",
    "name": "I-135 at 2nd",
    "targetCompressionRatio": 35,
    "id": 11504,
    "longitude": -97.313899
  },
  {
    "dateTime": 1693045247277,
    "videoStreamUrl": "https://cdn3.wowza.com/5/TkUxaGpnVUNpME1Z/KDOT/5-135-0009-2-I-135at47th.stream/playlist.m3u8",
    "latitude": 37.612872,
    "referrer": "https://www.kandrive.gov/",
    "locationId": "KS_WI",
    "previewImageUrl": "https://kscam.carsprogram.org/snapshots/GEN_5-135-0009-2-I-135at47th.jpeg",
    "name": "I-135 at 47th",
    "targetCompressionRatio": 35,
    "id": 11497,
    "longitude": -97.326792
  },
  {
    "dateTime": 1693045247277,
    "videoStreamUrl": "https://cdn3.wowza.com/5/TkUxaGpnVUNpME1Z/KDOT/5-135-0133-2-I-135at53rd.stream/playlist.m3u8",
    "latitude": 37.781756,
    "referrer": "https://www.kandrive.gov/",
    "locationId": "KS_WI",
    "previewImageUrl": "https://kscam.carsprogram.org/snapshots/GEN_5-135-0133-2-I-135at53rd.jpeg",
    "name": "I-135 at 53rd",
    "targetCompressionRatio": 35,
    "id": 11517,
    "longitude": -97.325805
  },
  {
    "dateTime": 1693045247277,
    "videoStreamUrl": "https://cdn3.wowza.com/5/TkUxaGpnVUNpME1Z/KDOT/5-135-0142-2-I-135at61st.stream/playlist.m3u8",
    "latitude": 37.7956,
    "referrer": "https://www.kandrive.gov/",
    "locationId": "KS_WI",
    "previewImageUrl": "https://kscam.carsprogram.org/snapshots/GEN_5-135-0142-2-I-135at61st.jpeg",
    "name": "I-135 at 61st",
    "targetCompressionRatio": 35,
    "id": 11518,
    "longitude": -97.3288
  },
  {
    "dateTime": 1693045247277,
    "videoStreamUrl": "https://cdn3.wowza.com/5/TkUxaGpnVUNpME1Z/KDOT/5-135-0076-2-I-135at9th.stream/playlist.m3u8",
    "latitude": 37.700758,
    "referrer": "https://www.kandrive.gov/",
    "locationId": "KS_WI",
    "previewImageUrl": "https://kscam.carsprogram.org/snapshots/GEN_5-135-0076-2-I-135at9th.jpeg",
    "name": "I-135 at 9th",
    "targetCompressionRatio": 35,
    "id": 11506,
    "longitude": -97.31725
  },
  {
    "dateTime": 1703608281171,
    "videoStreamUrl": "https://cdn3.wowza.com/5/VE5YZ3J3eUtPL1I4/KDOT/2-135-0910-2-I-135atCentennialRoad.stream/playlist.m3u8",
    "latitude": 38.80797,
    "referrer": "https://www.kandrive.gov/",
    "locationId": "KS_RU",
    "previewImageUrl": "https://kscam.carsprogram.org/snapshots/GEN_2-135-0910-2I-135atCentennialRdMM91.jpeg",
    "name": "I-135 at Centennial Road MM 91",
    "targetCompressionRatio": 35,
    "id": 13503,
    "longitude": -97.627948
  },
  {
    "dateTime": 1693045247277,
    "videoStreamUrl": "https://cdn3.wowza.com/5/TkUxaGpnVUNpME1Z/KDOT/5-135-0072-2-I-135atCentral.stream/playlist.m3u8",
    "latitude": 37.694106,
    "referrer": "https://www.kandrive.gov/",
    "locationId": "KS_WI",
    "previewImageUrl": "https://kscam.carsprogram.org/snapshots/GEN_5-135-0072-2-I-135atCentral.jpeg",
    "name": "I-135 at Central",
    "targetCompressionRatio": 35,
    "id": 11505,
    "longitude": -97.316036
  },
  {
    "dateTime": 1693045247277,
    "videoStreamUrl": "https://cdn3.wowza.com/5/TkUxaGpnVUNpME1Z/KDOT/5-135-0050-2-I-135atHarry.stream/playlist.m3u8",
    "latitude": 37.664709,
    "referrer": "https://www.kandrive.gov/",
    "locationId": "KS_WI",
    "previewImageUrl": "https://kscam.carsprogram.org/snapshots/GEN_5-135-0050-2-I-135atHarry.jpeg",
    "name": "I-135 at Harry",
    "targetCompressionRatio": 35,
    "id": 11502,
    "longitude": -97.312025
  },
  {
    "dateTime": 1693045247277,
    "videoStreamUrl": "https://cdn3.wowza.com/5/TkUxaGpnVUNpME1Z/KDOT/5-135-0026-2-I-135atHydraulicS.stream/playlist.m3u8",
    "latitude": 37.629075,
    "referrer": "https://www.kandrive.gov/",
    "locationId": "KS_WI",
    "previewImageUrl": "https://kscam.carsprogram.org/snapshots/GEN_5-135-0026-2-I-135atHydraulicS.jpeg",
    "name": "I-135 at Hydraulic S",
    "targetCompressionRatio": 35,
    "id": 11499,
    "longitude": -97.316559
  },
  {
    "dateTime": 1693045247277,
    "videoStreamUrl": "https://cdn3.wowza.com/5/TkUxaGpnVUNpME1Z/KDOT/5-135-0119-2-I-135atI-235.stream/playlist.m3u8",
    "latitude": 37.76311,
    "referrer": "https://www.kandrive.gov/",
    "locationId": "KS_WI",
    "previewImageUrl": "https://kscam.carsprogram.org/snapshots/GEN_5-135-0119-2-I-135atI-235.jpeg",
    "name": "I-135 at I-235",
    "targetCompressionRatio": 35,
    "id": 11514,
    "longitude": -97.3219
  },
  {
    "dateTime": 1693045247277,
    "videoStreamUrl": "https://cdn3.wowza.com/5/TkUxaGpnVUNpME1Z/KDOT/5-135-0121-2-I-135atI-235N.stream/playlist.m3u8",
    "latitude": 37.764489,
    "referrer": "https://www.kandrive.gov/",
    "locationId": "KS_WI",
    "previewImageUrl": "https://kscam.carsprogram.org/snapshots/GEN_5-135-0121-2-I-135atI-235N.jpeg",
    "name": "I-135 at I-235 N",
    "targetCompressionRatio": 35,
    "id": 11516,
    "longitude": -97.32243
  },
  {
    "dateTime": 1693045247277,
    "videoStreamUrl": "https://cdn3.wowza.com/5/TkUxaGpnVUNpME1Z/KDOT/5-135-0032-2-I-135atK-15.stream/playlist.m3u8",
    "latitude": 37.638565,
    "referrer": "https://www.kandrive.gov/",
    "locationId": "KS_WI",
    "previewImageUrl": "https://kscam.carsprogram.org/snapshots/GEN_5-135-0032-2-I-135atK-15.jpeg",
    "name": "I-135 at K-15",
    "targetCompressionRatio": 35,
    "id": 11500,
    "longitude": -97.308435
  },
  {
    "dateTime": 1693045247277,
    "videoStreamUrl": "https://cdn3.wowza.com/5/TkUxaGpnVUNpME1Z/KDOT/5-135-0055-2-I-135atLincoln.stream/playlist.m3u8",
    "latitude": 37.67386,
    "referrer": "https://www.kandrive.gov/",
    "locationId": "KS_WI",
    "previewImageUrl": "https://kscam.carsprogram.org/snapshots/GEN_5-135-0055-2-I-135atLincoln.jpeg",
    "name": "I-135 at Lincoln",
    "targetCompressionRatio": 35,
    "id": 11503,
    "longitude": -97.312023
  },
  {
    "dateTime": 1693045247277,
    "videoStreamUrl": "https://cdn3.wowza.com/5/TkUxaGpnVUNpME1Z/KDOT/5-135-0016-2-I-135atMacArthur.stream/playlist.m3u8",
    "latitude": 37.622876,
    "referrer": "https://www.kandrive.gov/",
    "locationId": "KS_WI",
    "previewImageUrl": "https://kscam.carsprogram.org/snapshots/GEN_5-135-0016-2-I-135atMacArthur.jpeg",
    "name": "I-135 at MacArthur",
    "targetCompressionRatio": 35,
    "id": 11498,
    "longitude": -97.329056
  },
  {
    "dateTime": 1693045247277,
    "videoStreamUrl": "https://cdn3.wowza.com/5/TkUxaGpnVUNpME1Z/KDOT/5-135-0040-2-I-135atPawnee.stream/playlist.m3u8",
    "latitude": 37.6497,
    "referrer": "https://www.kandrive.gov/",
    "locationId": "KS_WI",
    "previewImageUrl": "https://kscam.carsprogram.org/snapshots/GEN_5-135-0040-2-I-135atPawnee.jpeg",
    "name": "I-135 at Pawnee",
    "targetCompressionRatio": 35,
    "id": 11501,
    "longitude": -97.3106
  },
  {
    "dateTime": 1693045247277,
    "videoStreamUrl": "https://cdn3.wowza.com/5/VE5YZ3J3eUtPL1I4/KDOT/5-135-0300-2-I-135atUS-50SBMM30.stream/playlist.m3u8",
    "latitude": 38.026027,
    "referrer": "https://www.kandrive.gov/",
    "locationId": "KS_RU",
    "previewImageUrl": "https://kscam.carsprogram.org/snapshots/GEN_5-135-0300-2-I-135atUS-50SBMM30.jpeg",
    "name": "I-135 at US-50 SB MM 30",
    "targetCompressionRatio": 35,
    "id": 11519,
    "longitude": -97.32888
  },
  {
    "dateTime": 1703608281171,
    "videoStreamUrl": "https://cdn3.wowza.com/5/VE5YZ3J3eUtPL1I4/KDOT/5-135-0125-2I-135Nof45thSt.stream/playlist.m3u8",
    "latitude": 37.773462,
    "referrer": "https://www.kandrive.gov/",
    "locationId": "KS_WI",
    "previewImageUrl": "https://kscam.carsprogram.org/snapshots/GEN_5-135-0125-2I-135Nof45thSt.jpeg",
    "name": "I-135 N of 45th St",
    "targetCompressionRatio": 35,
    "id": 13502,
    "longitude": -97.326507
  },
  {
    "dateTime": 1693045247277,
    "videoStreamUrl": "https://cdn3.wowza.com/5/TkUxaGpnVUNpME1Z/KDOT/5-135-0120-2-I-135NOI-235N.stream/playlist.m3u8",
    "latitude": 37.764031,
    "referrer": "https://www.kandrive.gov/",
    "locationId": "KS_WI",
    "previewImageUrl": "https://kscam.carsprogram.org/snapshots/GEN_5-135-0120-2-I-135NOI-235N.jpeg",
    "name": "I-135 NO I-235 N",
    "targetCompressionRatio": 35,
    "id": 11515,
    "longitude": -97.32213
  },
  {
    "dateTime": 1693045247277,
    "videoStreamUrl": "https://cdn3.wowza.com/5/TkUxaGpnVUNpME1Z/KDOT/5-135-0110-2-I-135NOK-96.stream/playlist.m3u8",
    "latitude": 37.748435,
    "referrer": "https://www.kandrive.gov/",
    "locationId": "KS_WI",
    "previewImageUrl": "https://kscam.carsprogram.org/snapshots/GEN_5-135-0110-2-I-135NOK-96.jpeg",
    "name": "I-135 NO K-96",
    "targetCompressionRatio": 35,
    "id": 11512,
    "longitude": -97.319802
  },
  {
    "dateTime": 1693045247277,
    "videoStreamUrl": "https://cdn3.wowza.com/5/VE5YZ3J3eUtPL1I4/KDOT/2-135-0640-2-I-135northofMcPherson.stream/playlist.m3u8",
    "latitude": 38.420966,
    "referrer": "https://www.kandrive.gov/",
    "locationId": "KS_RU",
    "previewImageUrl": "https://kscam.carsprogram.org/snapshots/GEN_2-135-0640-2-I-135northofMcPherson.jpeg",
    "name": "I-135 north of McPherson",
    "targetCompressionRatio": 35,
    "id": 11520,
    "longitude": -97.621152
  },
  {
    "dateTime": 1693045247277,
    "videoStreamUrl": "https://cdn3.wowza.com/5/TkUxaGpnVUNpME1Z/KDOT/5-235-0110-2-I-235at21st.stream/playlist.m3u8",
    "latitude": 37.7236,
    "referrer": "https://www.kandrive.gov/",
    "locationId": "KS_WI",
    "previewImageUrl": "https://kscam.carsprogram.org/snapshots/GEN_5-235-0110-2-I-235at21st.jpeg",
    "name": "I-235 at 21st",
    "targetCompressionRatio": 35,
    "id": 11532,
    "longitude": -97.3888
  },
  {
    "dateTime": 1693045247277,
    "videoStreamUrl": "https://cdn3.wowza.com/5/TkUxaGpnVUNpME1Z/KDOT/5-235-0122-2-I-235at25th.stream/playlist.m3u8",
    "latitude": 37.735806,
    "referrer": "https://www.kandrive.gov/",
    "locationId": "KS_WI",
    "previewImageUrl": "https://kscam.carsprogram.org/snapshots/GEN_5-235-0122-2-I-235at25th.jpeg",
    "name": "I-235 at 25th",
    "targetCompressionRatio": 35,
    "id": 11533,
    "longitude": -97.37509
  },
  {
    "dateTime": 1703608281171,
    "videoStreamUrl": "https://cdn3.wowza.com/5/VE5YZ3J3eUtPL1I4/KDOT/5-235-0160-2-I-235atBroadwayN.stream/playlist.m3u8",
    "latitude": 37.758399,
    "referrer": "https://www.kandrive.gov/",
    "locationId": "KS_WI",
    "previewImageUrl": "https://kscam.carsprogram.org/snapshots/GEN_5-235-0160-2-I-235atBroadwayN.jpeg",
    "name": "I-235 at Broadway N",
    "targetCompressionRatio": 35,
    "id": 13504,
    "longitude": -97.332429
  },
  {
    "dateTime": 1693045247277,
    "videoStreamUrl": "https://cdn3.wowza.com/5/TkUxaGpnVUNpME1Z/KDOT/5-235-0004-2-I-235atSBroadway.stream/playlist.m3u8",
    "latitude": 37.616653,
    "referrer": "https://www.kandrive.gov/",
    "locationId": "KS_WI",
    "previewImageUrl": "https://kscam.carsprogram.org/snapshots/GEN_5-235-0004-2-I-235atS.Broadway.jpeg",
    "name": "I-235 at Broadway S",
    "targetCompressionRatio": 35,
    "id": 11521,
    "longitude": -97.333706
  },
  {
    "dateTime": 1693045247277,
    "videoStreamUrl": "https://cdn3.wowza.com/5/TkUxaGpnVUNpME1Z/KDOT/5-235-0088-2-I-235atCentral.stream/playlist.m3u8",
    "latitude": 37.698376,
    "referrer": "https://www.kandrive.gov/",
    "locationId": "KS_WI",
    "previewImageUrl": "https://kscam.carsprogram.org/snapshots/GEN_5-235-0088-2-I-235atCentral.jpeg",
    "name": "I-235 at Central",
    "targetCompressionRatio": 35,
    "id": 11530,
    "longitude": -97.409637
  },
  {
    "dateTime": 1693045247277,
    "videoStreamUrl": "https://cdn3.wowza.com/5/TkUxaGpnVUNpME1Z/KDOT/5-235-0083-2-I-235atCentralS.stream/playlist.m3u8",
    "latitude": 37.690295,
    "referrer": "https://www.kandrive.gov/",
    "locationId": "KS_WI",
    "previewImageUrl": "https://kscam.carsprogram.org/snapshots/GEN_5-235-0083-2-I-235atCentralS.jpeg",
    "name": "I-235 at Central S",
    "targetCompressionRatio": 35,
    "id": 11529,
    "longitude": -97.409603
  },
  {
    "dateTime": 1693045247277,
    "videoStreamUrl": "https://cdn3.wowza.com/5/TkUxaGpnVUNpME1Z/KDOT/5-235-0161-2-I-235EOBroadwayN.stream/playlist.m3u8",
    "latitude": 37.758976,
    "referrer": "https://www.kandrive.gov/",
    "locationId": "KS_WI",
    "previewImageUrl": "https://kscam.carsprogram.org/snapshots/GEN_5-235-0161-2-I-235EOBroadwayN.jpeg",
    "name": "I-235 at EO Broadway N",
    "targetCompressionRatio": 35,
    "id": 11536,
    "longitude": -97.329854
  },
  {
    "dateTime": 1693045247277,
    "videoStreamUrl": "https://cdn3.wowza.com/5/TkUxaGpnVUNpME1Z/KDOT/5-235-0052-2-I-235atK-42.stream/playlist.m3u8",
    "latitude": 37.646988,
    "referrer": "https://www.kandrive.gov/",
    "locationId": "KS_WI",
    "previewImageUrl": "https://kscam.carsprogram.org/snapshots/GEN_5-235-0052-2-I-235atK-42.jpeg",
    "name": "I-235 at K-42",
    "targetCompressionRatio": 35,
    "id": 11526,
    "longitude": -97.398972
  },
  {
    "dateTime": 1693045247277,
    "videoStreamUrl": "https://cdn3.wowza.com/5/TkUxaGpnVUNpME1Z/KDOT/5-096-2860-2-I-235atK-96.stream/playlist.m3u8",
    "latitude": 37.753078,
    "referrer": "https://www.kandrive.gov/",
    "locationId": "KS_WI",
    "previewImageUrl": "https://kscam.carsprogram.org/snapshots/GEN_5-096-2860-2-I-235atK-96.jpeg",
    "name": "I-235 at K-96",
    "targetCompressionRatio": 35,
    "id": 11480,
    "longitude": -97.374093
  },
  {
    "dateTime": 1693045247277,
    "videoStreamUrl": "https://cdn3.wowza.com/5/TkUxaGpnVUNpME1Z/KDOT/5-235-0010-2-I-235atMacArthur.stream/playlist.m3u8",
    "latitude": 37.622905,
    "referrer": "https://www.kandrive.gov/",
    "locationId": "KS_WI",
    "previewImageUrl": "https://kscam.carsprogram.org/snapshots/GEN_5-235-0010-2-I-235atMacArthur.jpeg",
    "name": "I-235 at MacArthur",
    "targetCompressionRatio": 35,
    "id": 11522,
    "longitude": -97.33904
  },
  {
    "dateTime": 1693045247277,
    "videoStreamUrl": "https://cdn3.wowza.com/5/TkUxaGpnVUNpME1Z/KDOT/5-235-0076-2-I-235atMaple.stream/playlist.m3u8",
    "latitude": 37.681074,
    "referrer": "https://www.kandrive.gov/",
    "locationId": "KS_WI",
    "previewImageUrl": "https://kscam.carsprogram.org/snapshots/GEN_5-235-0076-2-I-235atMaple.jpeg",
    "name": "I-235 at Maple",
    "targetCompressionRatio": 35,
    "id": 11528,
    "longitude": -97.405976
  },
  {
    "dateTime": 1693045247277,
    "videoStreamUrl": "https://cdn3.wowza.com/5/TkUxaGpnVUNpME1Z/KDOT/5-235-0029-2-I-235atMeridianS.stream/playlist.m3u8",
    "latitude": 37.6288,
    "referrer": "https://www.kandrive.gov/",
    "locationId": "KS_WI",
    "previewImageUrl": "https://kscam.carsprogram.org/snapshots/GEN_5-235-0029-2-I-235atMeridianS.jpeg",
    "name": "I-235 at Meridian S",
    "targetCompressionRatio": 35,
    "id": 11524,
    "longitude": -97.3712
  },
  {
    "dateTime": 1693045247277,
    "videoStreamUrl": "https://cdn3.wowza.com/5/TkUxaGpnVUNpME1Z/KDOT/5-235-0144-2-I-235atSenecaN.stream/playlist.m3u8",
    "latitude": 37.7569,
    "referrer": "https://www.kandrive.gov/",
    "locationId": "KS_WI",
    "previewImageUrl": "https://kscam.carsprogram.org/snapshots/GEN_5-235-0144-2-I-235atSenecaN.jpeg",
    "name": "I-235 at Seneca N",
    "targetCompressionRatio": 35,
    "id": 11534,
    "longitude": -97.354267
  },
  {
    "dateTime": 1693045247277,
    "videoStreamUrl": "https://cdn3.wowza.com/5/TkUxaGpnVUNpME1Z/KDOT/5-235-0019-2-I-235atSenecaS.stream/playlist.m3u8",
    "latitude": 37.628159,
    "referrer": "https://www.kandrive.gov/",
    "locationId": "KS_WI",
    "previewImageUrl": "https://kscam.carsprogram.org/snapshots/GEN_5-235-0019-2-I-235atSenecaS.jpeg",
    "name": "I-235 at Seneca S",
    "targetCompressionRatio": 35,
    "id": 11523,
    "longitude": -97.352942
  },
  {
    "dateTime": 1693045247277,
    "videoStreamUrl": "https://cdn3.wowza.com/5/TkUxaGpnVUNpME1Z/KDOT/5-235-0067-2-I-235atUS-54.stream/playlist.m3u8",
    "latitude": 37.669919,
    "referrer": "https://www.kandrive.gov/",
    "locationId": "KS_WI",
    "previewImageUrl": "https://kscam.carsprogram.org/snapshots/GEN_5-235-0067-2-I-235atUS-54.jpeg",
    "name": "I-235 at US-54",
    "targetCompressionRatio": 35,
    "id": 11527,
    "longitude": -97.40095
  },
  {
    "dateTime": 1693045247277,
    "videoStreamUrl": "https://cdn3.wowza.com/5/TkUxaGpnVUNpME1Z/KDOT/5-235-0039-2-I-235atWestSt.stream/playlist.m3u8",
    "latitude": 37.631027,
    "referrer": "https://www.kandrive.gov/",
    "locationId": "KS_WI",
    "previewImageUrl": "https://kscam.carsprogram.org/snapshots/GEN_5-235-0039-2-I-235atWestSt.jpeg",
    "name": "I-235 at West St",
    "targetCompressionRatio": 35,
    "id": 11525,
    "longitude": -97.388877
  },
  {
    "dateTime": 1693045247277,
    "videoStreamUrl": "https://cdn3.wowza.com/5/TkUxaGpnVUNpME1Z/KDOT/5-235-0153-2-I-235atWOBroadwayN.stream/playlist.m3u8",
    "latitude": 37.75602,
    "referrer": "https://www.kandrive.gov/",
    "locationId": "KS_WI",
    "previewImageUrl": "https://kscam.carsprogram.org/snapshots/GEN_5-235-0153-2-I-235atWOBroadwayN.jpeg",
    "name": "I-235 at WO Broadway N",
    "targetCompressionRatio": 35,
    "id": 11535,
    "longitude": -97.336071
  },
  {
    "dateTime": 1693045247277,
    "videoStreamUrl": "https://cdn3.wowza.com/5/TkUxaGpnVUNpME1Z/KDOT/5-235-0101-2-I-235atZoo.stream/playlist.m3u8",
    "latitude": 37.714012,
    "referrer": "https://www.kandrive.gov/",
    "locationId": "KS_WI",
    "previewImageUrl": "https://kscam.carsprogram.org/snapshots/GEN_5-235-0101-2-I-235atZoo.jpeg",
    "name": "I-235 at Zoo",
    "targetCompressionRatio": 35,
    "id": 11531,
    "longitude": -97.399114
  },
  {
    "dateTime": 1693045247277,
    "videoStreamUrl": "https://cdn3.wowza.com/5/TkUxaGpnVUNpME1Z/KDOT/1-035-1310-2-I-35&BurlingameRoadExit131.stream/playlist.m3u8",
    "latitude": 38.413259,
    "referrer": "https://www.kandrive.gov/",
    "locationId": "KS_RU",
    "previewImageUrl": "https://kscam.carsprogram.org/snapshots/GEN_1-035-1310-2-I-35andBurlingameRoadExit131.jpeg",
    "name": "I-35 and Burlingame Road Exit 131",
    "targetCompressionRatio": 35,
    "id": 11392,
    "longitude": -96.162833
  },
  {
    "dateTime": 1693045247277,
    "videoStreamUrl": "https://cdn3.wowza.com/5/TkUxaGpnVUNpME1Z/KDOT/1-035-1410-2-I-35&K-130Exit141.stream/playlist.m3u8",
    "latitude": 38.408385,
    "referrer": "https://www.kandrive.gov/",
    "locationId": "KS_RU",
    "previewImageUrl": "https://kscam.carsprogram.org/snapshots/GEN_1-035-1410-2-I-35andK-130Exit141.jpeg",
    "name": "I-35 and K-130 Exit 141",
    "targetCompressionRatio": 35,
    "id": 11394,
    "longitude": -95.98682
  },
  {
    "dateTime": 1693045247277,
    "videoStreamUrl": "https://cdn3.wowza.com/5/TkUxaGpnVUNpME1Z/KDOT/4-035-1980-2-I-35&K-33atWellsville.stream/playlist.m3u8",
    "latitude": 38.703933,
    "referrer": "https://www.kandrive.gov/",
    "locationId": "KS_RU",
    "previewImageUrl": "https://kscam.carsprogram.org/snapshots/GEN_4-035-1980-2-I-35andK-33atWellsville.jpeg",
    "name": "I-35 and K-33 at Wellsville",
    "targetCompressionRatio": 35,
    "id": 11398,
    "longitude": -95.075159
  },
  {
    "dateTime": 1693045247277,
    "videoStreamUrl": "https://cdn3.wowza.com/5/TkUxaGpnVUNpME1Z/KDOT/4-035-1750-2-I-35&OttawaRestStop.stream/playlist.m3u8",
    "latitude": 38.526681,
    "referrer": "https://www.kandrive.gov/",
    "locationId": "KS_RU",
    "previewImageUrl": "https://kscam.carsprogram.org/snapshots/GEN_4-035-1750-2-I-35andOttawaRestStop.jpeg",
    "name": "I-35 and Ottawa Rest Stop",
    "targetCompressionRatio": 35,
    "id": 11396,
    "longitude": -95.405553
  },
  {
    "dateTime": 1693045247277,
    "videoStreamUrl": "https://cdn3.wowza.com/5/TkUxaGpnVUNpME1Z/KDOT/4-035-1880-2-I-35&US-59.stream/playlist.m3u8",
    "latitude": 38.638474,
    "referrer": "https://www.kandrive.gov/",
    "locationId": "KS_RU",
    "previewImageUrl": "https://kscam.carsprogram.org/snapshots/GEN_4-035-1880-2-I-35andUS-59.jpeg",
    "name": "I-35 and US-59",
    "targetCompressionRatio": 35,
    "id": 11397,
    "longitude": -95.223028
  },
  {
    "dateTime": 1693045247277,
    "videoStreamUrl": "https://cdn3.wowza.com/5/VE5YZ3J3eUtPL1I4/KDOT/4-035-1510-2-I-35atBetoJunction.stream/playlist.m3u8",
    "latitude": 38.425722,
    "referrer": "https://www.kandrive.gov/",
    "locationId": "KS_RU",
    "previewImageUrl": "https://kscam.carsprogram.org/snapshots/GEN_4-035-1510-2-I-35atBetoJunction.jpeg",
    "name": "I-35 at Beto Junction MM 151",
    "targetCompressionRatio": 35,
    "id": 11395,
    "longitude": -95.803232
  },
  {
    "dateTime": 1693045247277,
    "videoStreamUrl": "https://cdn3.wowza.com/5/TkUxaGpnVUNpME1Z/KDOT/4-035-1350-2-I-35EastofEmporiaMM135.stream/playlist.m3u8",
    "latitude": 38.410642,
    "referrer": "https://www.kandrive.gov/",
    "locationId": "KS_RU",
    "previewImageUrl": "https://kscam.carsprogram.org/snapshots/GEN_4-035-1350-2-I-35EastofEmporiaMM135.jpeg",
    "name": "I-35 at Emporia MM 135",
    "targetCompressionRatio": 35,
    "id": 11393,
    "longitude": -96.095115
  },
  {
    "dateTime": 1693045247277,
    "videoStreamUrl": "https://cdn3.wowza.com/5/VE5YZ3J3eUtPL1I4/KDOT/2-070-2750-2-I-70atAbileneExit275.stream/playlist.m3u8",
    "latitude": 38.940374,
    "referrer": "https://www.kandrive.gov/",
    "locationId": "KS_RU",
    "previewImageUrl": "https://kscam.carsprogram.org/snapshots/GEN_2-070-2750-2-I-70atAbileneExit275.jpeg",
    "name": "I-70 at Abilene Exit 275",
    "targetCompressionRatio": 35,
    "id": 11464,
    "longitude": -97.214347
  },
  {
    "dateTime": 1693045247277,
    "videoStreamUrl": "https://cdn3.wowza.com/5/VE5YZ3J3eUtPL1I4/KDOT/1-070-3280-2-I-70atAlmaexit328.stream/playlist.m3u8",
    "latitude": 39.065978,
    "referrer": "https://www.kandrive.gov/",
    "locationId": "KS_RU",
    "previewImageUrl": "https://kscam.carsprogram.org/snapshots/GEN_1-070-3280-2-I-70atAlmaexit328.jpeg",
    "name": "I-70 at Alma Exit 328",
    "targetCompressionRatio": 35,
    "id": 11471,
    "longitude": -96.28878
  },
  {
    "dateTime": 1693045247277,
    "videoStreamUrl": "https://cdn3.wowza.com/5/VE5YZ3J3eUtPL1I4/KDOT/2-070-2860-2-I-70atChapmanexit286.stream/playlist.m3u8",
    "latitude": 38.990096,
    "referrer": "https://www.kandrive.gov/",
    "locationId": "KS_RU",
    "previewImageUrl": "https://kscam.carsprogram.org/snapshots/GEN_2-070-2860-2-I-70atChapmanexit286.jpeg",
    "name": "I-70 at Chapman Exit 286",
    "targetCompressionRatio": 35,
    "id": 11465,
    "longitude": -97.024405
  },
  {
    "dateTime": 1693045247277,
    "videoStreamUrl": "https://cdn3.wowza.com/5/VE5YZ3J3eUtPL1I4/KDOT/3-070-0530-2-I-70atColbyexit53.stream/playlist.m3u8",
    "latitude": 39.365067,
    "referrer": "https://www.kandrive.gov/",
    "locationId": "KS_RU",
    "previewImageUrl": "https://kscam.carsprogram.org/snapshots/GEN_3-070-0530-2-I-70atColbyexit53.jpeg",
    "name": "I-70 at Colby Exit 53",
    "targetCompressionRatio": 35,
    "id": 11448,
    "longitude": -101.055274
  },
  {
    "dateTime": 1693045247277,
    "videoStreamUrl": "https://cdn3.wowza.com/5/VE5YZ3J3eUtPL1I4/KDOT/1-070-3150-2-I-70atDeepCreekRoad.stream/playlist.m3u8",
    "latitude": 39.065494,
    "referrer": "https://www.kandrive.gov/",
    "locationId": "KS_RU",
    "previewImageUrl": "https://kscam.carsprogram.org/snapshots/GEN_1-070-3150-2-I-70atDeepCreekRoad.jpeg",
    "name": "I-70 at Deep Creek Road MM 315",
    "targetCompressionRatio": 35,
    "id": 11470,
    "longitude": -96.507927
  },
  {
    "dateTime": 1703608281171,
    "videoStreamUrl": "https://cdn3.wowza.com/5/VE5YZ3J3eUtPL1I4/KDOT/3-070-1460-2-I-70atEllisExit146.stream/playlist.m3u8",
    "latitude": 38.950008,
    "referrer": "https://www.kandrive.gov/",
    "locationId": "KS_RU",
    "previewImageUrl": "https://kscam.carsprogram.org/snapshots/GEN_3-070-1460-2-I-70atEllisExit146.jpeg",
    "name": "I-70 at Ellis Exit 146",
    "targetCompressionRatio": 35,
    "id": 13499,
    "longitude": -99.559788
  },
  {
    "dateTime": 1693045247277,
    "videoStreamUrl": "https://cdn3.wowza.com/5/VE5YZ3J3eUtPL1I4/KDOT/1-070-3581-2-I-70atGageBlvdE.stream/playlist.m3u8",
    "latitude": 39.066467,
    "referrer": "https://www.kandrive.gov/",
    "locationId": "KS_RU",
    "previewImageUrl": "https://kscam.carsprogram.org/snapshots/GEN_1-070-3581-2-I-70atGageBlvdE.jpeg",
    "name": "I-70 at Gage Blvd E",
    "targetCompressionRatio": 35,
    "id": 11474,
    "longitude": -95.722721
  },
  {
    "dateTime": 1693045247277,
    "videoStreamUrl": "https://cdn3.wowza.com/5/VE5YZ3J3eUtPL1I4/KDOT/1-070-3580-2-I-70atGageBlvdW.stream/playlist.m3u8",
    "latitude": 39.066454,
    "referrer": "https://www.kandrive.gov/",
    "locationId": "KS_RU",
    "previewImageUrl": "https://kscam.carsprogram.org/snapshots/GEN_1-070-3580-2-I-70atGageBlvdW.jpeg",
    "name": "I-70 at Gage Blvd W",
    "targetCompressionRatio": 35,
    "id": 11473,
    "longitude": -95.722839
  },
  {
    "dateTime": 1693045247277,
    "videoStreamUrl": "https://cdn3.wowza.com/5/VE5YZ3J3eUtPL1I4/KDOT/3-070-0170-2-I-70atGoodlandexit17.stream/playlist.m3u8",
    "latitude": 39.328504,
    "referrer": "https://www.kandrive.gov/",
    "locationId": "KS_RU_MST",
    "previewImageUrl": "https://kscam.carsprogram.org/snapshots/GEN_3-070-0170-2-I-70atGoodlandexit17.jpeg",
    "name": "I-70 at Goodland Exit 17",
    "targetCompressionRatio": 35,
    "id": 11446,
    "longitude": -101.725814
  },
  {
    "dateTime": 1693045247277,
    "videoStreamUrl": "https://cdn3.wowza.com/5/VE5YZ3J3eUtPL1I4/KDOT/3-070-0940-2-I-70atGrainfieldExit94.stream/playlist.m3u8",
    "latitude": 39.110058,
    "referrer": "https://www.kandrive.gov/",
    "locationId": "KS_RU",
    "previewImageUrl": "https://kscam.carsprogram.org/snapshots/GEN_3-070-0940-2-I-70atGrainfieldExit94.jpeg",
    "name": "I-70 at Grainfield Exit 93",
    "targetCompressionRatio": 35,
    "id": 11452,
    "longitude": -100.479156
  },
  {
    "dateTime": 1693045247277,
    "videoStreamUrl": "https://cdn3.wowza.com/5/VE5YZ3J3eUtPL1I4/KDOT/3-070-1590-2-I-70atHaysexit159.stream/playlist.m3u8",
    "latitude": 38.8985,
    "referrer": "https://www.kandrive.gov/",
    "locationId": "KS_RU",
    "previewImageUrl": "https://kscam.carsprogram.org/snapshots/GEN_3-070-1590-2-I-70atHaysexit159.jpeg",
    "name": "I-70 at Hays Exit 159",
    "targetCompressionRatio": 35,
    "id": 11455,
    "longitude": -99.317514
  },
  {
    "dateTime": 1693045247277,
    "videoStreamUrl": "https://cdn3.wowza.com/5/VE5YZ3J3eUtPL1I4/KDOT/2-070-2500-2-I-70&I-135.stream/playlist.m3u8",
    "latitude": 38.87488,
    "referrer": "https://www.kandrive.gov/",
    "locationId": "KS_RU",
    "previewImageUrl": "https://kscam.carsprogram.org/snapshots/GEN_2-070-2500-2-I-70&I-135.jpeg",
    "name": "I-70 at I-135",
    "targetCompressionRatio": 35,
    "id": 11462,
    "longitude": -97.645722
  },
  {
    "dateTime": 1693045247277,
    "videoStreamUrl": "https://cdn3.wowza.com/5/VE5YZ3J3eUtPL1I4/KDOT/2-070-3010-2-I-70atJunctionCityExit301.stream/playlist.m3u8",
    "latitude": 39.039768,
    "referrer": "https://www.kandrive.gov/",
    "locationId": "KS_RU",
    "previewImageUrl": "https://kscam.carsprogram.org/snapshots/GEN_2-070-3010-2-I-70atJunctionCityExit301.jpeg",
    "name": "I-70 at Junction City (Henry Dr.) Exit 301",
    "targetCompressionRatio": 35,
    "id": 11468,
    "longitude": -96.765951
  },
  {
    "dateTime": 1693045247277,
    "videoStreamUrl": "https://cdn3.wowza.com/5/VE5YZ3J3eUtPL1I4/KDOT/2-070-2990-2-I-70atJunctionCityexit299.stream/playlist.m3u8",
    "latitude": 39.028168,
    "referrer": "https://www.kandrive.gov/",
    "locationId": "KS_RU",
    "previewImageUrl": "https://kscam.carsprogram.org/snapshots/GEN_2-070-2990-2-I-70atJunctionCityexit299.jpeg",
    "name": "I-70 at Junction City (J Hill Rd.) Exit 299",
    "targetCompressionRatio": 35,
    "id": 11467,
    "longitude": -96.79234
  },
  {
    "dateTime": 1693045247277,
    "videoStreamUrl": "https://cdn3.wowza.com/5/VE5YZ3J3eUtPL1I4/KDOT/2-070-2290-2-I-70atLincolnHill.stream/playlist.m3u8",
    "latitude": 38.873747,
    "referrer": "https://www.kandrive.gov/",
    "locationId": "KS_RU",
    "previewImageUrl": "https://kscam.carsprogram.org/snapshots/GEN_2-070-2290-2-I-70atLincolnHill.jpeg",
    "name": "I-70 at Lincoln Hill MM 229",
    "targetCompressionRatio": 35,
    "id": 11461,
    "longitude": -98.052811
  },
  {
    "dateTime": 1693045247277,
    "videoStreamUrl": "https://cdn3.wowza.com/5/VE5YZ3J3eUtPL1I4/KDOT/1-070-3130-2-I-70atManhattanexit313.stream/playlist.m3u8",
    "latitude": 39.063008,
    "referrer": "https://www.kandrive.gov/",
    "locationId": "KS_RU",
    "previewImageUrl": "https://kscam.carsprogram.org/snapshots/GEN_1-070-3130-2-I-70atManhattanexit313.jpeg",
    "name": "I-70 at Manhattan Exit 313",
    "targetCompressionRatio": 35,
    "id": 11469,
    "longitude": -96.538113
  },
  {
    "dateTime": 1693045247277,
    "videoStreamUrl": "https://cdn3.wowza.com/5/VE5YZ3J3eUtPL1I4/KDOT/3-070-0620-2-I-70atMingoexit62.stream/playlist.m3u8",
    "latitude": 39.278266,
    "referrer": "https://www.kandrive.gov/",
    "locationId": "KS_RU",
    "previewImageUrl": "https://kscam.carsprogram.org/snapshots/GEN_3-070-0620-2-I-70atMingoexit62.jpeg",
    "name": "I-70 at Mingo Exit 62",
    "targetCompressionRatio": 35,
    "id": 11449,
    "longitude": -100.941376
  },
  {
    "dateTime": 1693045247277,
    "videoStreamUrl": "https://cdn3.wowza.com/5/VE5YZ3J3eUtPL1I4/KDOT/3-070-0760-2-I-70atOakleyexit76.stream/playlist.m3u8",
    "latitude": 39.119741,
    "referrer": "https://www.kandrive.gov/",
    "locationId": "KS_RU",
    "previewImageUrl": "https://kscam.carsprogram.org/snapshots/GEN_3-070-0760-2-I-70atOakleyexit76.jpeg",
    "name": "I-70 at Oakley Exit 76",
    "targetCompressionRatio": 35,
    "id": 11450,
    "longitude": -100.807986
  },
  {
    "dateTime": 1693045247277,
    "videoStreamUrl": "https://cdn3.wowza.com/5/VE5YZ3J3eUtPL1I4/KDOT/3-070-1840-2-I-70atRussellexit184.stream/playlist.m3u8",
    "latitude": 38.86428,
    "referrer": "https://www.kandrive.gov/",
    "locationId": "KS_RU",
    "previewImageUrl": "https://kscam.carsprogram.org/snapshots/GEN_3-070-1840-2-I-70atRussellexit184.jpeg",
    "name": "I-70 at Russell Exit 184",
    "targetCompressionRatio": 35,
    "id": 11458,
    "longitude": -98.854865
  },
  {
    "dateTime": 1693045247277,
    "videoStreamUrl": "https://cdn3.wowza.com/5/VE5YZ3J3eUtPL1I4/KDOT/2-070-2660-2-I-70atSolomonexit266.stream/playlist.m3u8",
    "latitude": 38.92927,
    "referrer": "https://www.kandrive.gov/",
    "locationId": "KS_RU",
    "previewImageUrl": "https://kscam.carsprogram.org/snapshots/GEN_2-070-2660-2-I-70atSolomonexit266.jpeg",
    "name": "I-70 at Solomon Exit 266",
    "targetCompressionRatio": 35,
    "id": 11463,
    "longitude": -97.371614
  },
  {
    "dateTime": 1693045247277,
    "videoStreamUrl": "https://cdn3.wowza.com/5/VE5YZ3J3eUtPL1I4/KDOT/1-070-3580-2-I-70atTopekaGageMcVickerexit.stream/playlist.m3u8",
    "latitude": 39.067867,
    "referrer": "https://www.kandrive.gov/",
    "locationId": "KS_RU",
    "previewImageUrl": "https://kscam.carsprogram.org/snapshots/GEN_1-070-3580-2-I-70atTopekaGage_McVickerexit.jpeg",
    "name": "I-70 at Topeka Gage and MacVicar Exit 358",
    "targetCompressionRatio": 35,
    "id": 11475,
    "longitude": -95.717578
  },
  {
    "dateTime": 1693045247277,
    "videoStreamUrl": "https://cdn3.wowza.com/5/VE5YZ3J3eUtPL1I4/KDOT/3-070-1270-2-I-70atWakeeneyexit127.stream/playlist.m3u8",
    "latitude": 39.014819,
    "referrer": "https://www.kandrive.gov/",
    "locationId": "KS_RU",
    "previewImageUrl": "https://kscam.carsprogram.org/snapshots/GEN_3-070-1270-2-I-70atWakeeneyexit127.jpeg",
    "name": "I-70 at Wakeeney Exit 127",
    "targetCompressionRatio": 35,
    "id": 11453,
    "longitude": -99.889882
  },
  {
    "dateTime": 1693045247277,
    "videoStreamUrl": "https://cdn3.wowza.com/5/VE5YZ3J3eUtPL1I4/KDOT/3-070-1720-2-I-70atWalkerexit172.stream/playlist.m3u8",
    "latitude": 38.862806,
    "referrer": "https://www.kandrive.gov/",
    "locationId": "KS_RU",
    "previewImageUrl": "https://kscam.carsprogram.org/snapshots/GEN_3-070-1720-2-I-70atWalkerexit172.jpeg",
    "name": "I-70 at Walker Exit 172",
    "targetCompressionRatio": 35,
    "id": 11457,
    "longitude": -99.076583
  },
  {
    "dateTime": 1693045247277,
    "videoStreamUrl": "https://cdn3.wowza.com/5/VE5YZ3J3eUtPL1I4/KDOT/2-070-2060-2-I-70atWilsonExit206.stream/playlist.m3u8",
    "latitude": 38.849324,
    "referrer": "https://www.kandrive.gov/",
    "locationId": "KS_RU",
    "previewImageUrl": "https://kscam.carsprogram.org/snapshots/GEN_2-070-2060-2-I-70atWilsonExit206.jpeg",
    "name": "I-70 at Wilson Exit 206",
    "targetCompressionRatio": 35,
    "id": 11460,
    "longitude": -98.467701
  },
  {
    "dateTime": 1703608281171,
    "videoStreamUrl": "https://cdn3.wowza.com/5/VE5YZ3J3eUtPL1I4/KDOT/3-070-0580-2-I-70eastofColby.stream/playlist.m3u8",
    "latitude": 39.320284,
    "referrer": "https://www.kandrive.gov/",
    "locationId": "KS_RU",
    "previewImageUrl": "https://kscam.carsprogram.org/snapshots/GEN_3-070-0580-2-I-70eastofColby.jpeg",
    "name": "I-70 east of Colby MM 57",
    "targetCompressionRatio": 35,
    "id": 13498,
    "longitude": -100.991577
  },
  {
    "dateTime": 1693045247277,
    "videoStreamUrl": "https://cdn3.wowza.com/5/VE5YZ3J3eUtPL1I4/KDOT/3-070-0220-2-I-70eastofGoodland.stream/playlist.m3u8",
    "latitude": 39.330116,
    "referrer": "https://www.kandrive.gov/",
    "locationId": "KS_RU_MST",
    "previewImageUrl": "https://kscam.carsprogram.org/snapshots/GEN_3-070-0220-2-I-70eastofGoodland.jpeg",
    "name": "I-70 east of Goodland MM 22",
    "targetCompressionRatio": 35,
    "id": 11447,
    "longitude": -101.630502
  },
  {
    "dateTime": 1693045247277,
    "videoStreamUrl": "https://cdn3.wowza.com/5/VE5YZ3J3eUtPL1I4/KDOT/3-070-1600-2-I-70eastofHays.stream/playlist.m3u8",
    "latitude": 38.887908,
    "referrer": "https://www.kandrive.gov/",
    "locationId": "KS_RU",
    "previewImageUrl": "https://kscam.carsprogram.org/snapshots/GEN_3-070-1600-2-I-70eastofHays.jpeg",
    "name": "I-70 east of Hays MM 160",
    "targetCompressionRatio": 35,
    "id": 11456,
    "longitude": -99.293803
  },
  {
    "dateTime": 1693045247277,
    "videoStreamUrl": "https://cdn3.wowza.com/5/VE5YZ3J3eUtPL1I4/KDOT/3-070-0050-2-I-70eastofKanorado.stream/playlist.m3u8",
    "latitude": 39.328767,
    "referrer": "https://www.kandrive.gov/",
    "locationId": "KS_RU_MST",
    "previewImageUrl": "https://kscam.carsprogram.org/snapshots/GEN_3-070-0050-2-I-70eastofKanorado.jpeg",
    "name": "I-70 east of Kanorado MM 5",
    "targetCompressionRatio": 35,
    "id": 11445,
    "longitude": -101.940694
  },
  {
    "dateTime": 1693045247277,
    "videoStreamUrl": "https://cdn3.wowza.com/5/VE5YZ3J3eUtPL1I4/KDOT/3-070-0780-2-I-70eastofOakley.stream/playlist.m3u8",
    "latitude": 39.112655,
    "referrer": "https://www.kandrive.gov/",
    "locationId": "KS_RU",
    "previewImageUrl": "https://kscam.carsprogram.org/snapshots/GEN_3-070-0780-2-I-70eastofOakley.jpeg",
    "name": "I-70 east of Oakley MM 78",
    "targetCompressionRatio": 35,
    "id": 11451,
    "longitude": -100.772894
  },
  {
    "dateTime": 1693045247277,
    "videoStreamUrl": "https://cdn3.wowza.com/5/VE5YZ3J3eUtPL1I4/KDOT/3-070-1860-2-I-70eastofRussell.stream/playlist.m3u8",
    "latitude": 38.857304,
    "referrer": "https://www.kandrive.gov/",
    "locationId": "KS_RU",
    "previewImageUrl": "https://kscam.carsprogram.org/snapshots/GEN_3-070-1860-2-I-70eastofRussell.jpeg",
    "name": "I-70 east of Russell MM 186",
    "targetCompressionRatio": 35,
    "id": 11459,
    "longitude": -98.80511
  },
  {
    "dateTime": 1693045247277,
    "videoStreamUrl": "https://cdn3.wowza.com/5/VE5YZ3J3eUtPL1I4/KDOT/3-070-1290-2-I-70eastofWakeeneyMM129.stream/playlist.m3u8",
    "latitude": 39.008769,
    "referrer": "https://www.kandrive.gov/",
    "locationId": "KS_RU",
    "previewImageUrl": "https://kscam.carsprogram.org/snapshots/GEN_3-070-1290-2-I-70eastofWakeeneyMM129.jpeg",
    "name": "I-70 east of Wakeeney MM 129",
    "targetCompressionRatio": 35,
    "id": 11454,
    "longitude": -99.858942
  },
  {
    "dateTime": 1693045247277,
    "videoStreamUrl": "https://cdn3.wowza.com/5/VE5YZ3J3eUtPL1I4/KDOT/1-070-3530-2-I-70nearAuburnRoadexit.stream/playlist.m3u8",
    "latitude": 39.050776,
    "referrer": "https://www.kandrive.gov/",
    "locationId": "KS_RU",
    "previewImageUrl": "https://kscam.carsprogram.org/snapshots/GEN_1-070-3530-2-I-70nearAuburnRoadexit.jpeg",
    "name": "I-70 near Auburn Road Exit 353",
    "targetCompressionRatio": 35,
    "id": 11472,
    "longitude": -95.808007
  },
  {
    "dateTime": 1693045247277,
    "videoStreamUrl": "https://cdn3.wowza.com/5/VE5YZ3J3eUtPL1I4/KDOT/1-040-3840-2-US-40atKasoldDr.stream/playlist.m3u8",
    "latitude": 38.922691,
    "referrer": "https://www.kandrive.gov/",
    "locationId": "KS_RU",
    "previewImageUrl": "https://kscam.carsprogram.org/snapshots/GEN_1-040-3840-2-US-40atKasoldDr.jpeg",
    "name": "K-10 at Kasold Dr",
    "targetCompressionRatio": 35,
    "id": 11402,
    "longitude": -95.278729
  },
  {
    "dateTime": 1693045247277,
    "videoStreamUrl": "https://cdn3.wowza.com/5/VE5YZ3J3eUtPL1I4/KDOT/1-040-3841-2-K-10atWakarusa.stream/playlist.m3u8",
    "latitude": 38.936149,
    "referrer": "https://www.kandrive.gov/",
    "locationId": "KS_RU",
    "previewImageUrl": "https://kscam.carsprogram.org/snapshots/GEN_1-040-3841-2-K-10atWakarusa.jpeg",
    "name": "K-10 at Wakarusa",
    "targetCompressionRatio": 35,
    "id": 11401,
    "longitude": -95.30698
  },
  {
    "dateTime": 1693045247277,
    "videoStreamUrl": "https://cdn3.wowza.com/5/VE5YZ3J3eUtPL1I4/KDOT/1-040-3820-2-US-40EastofClintonPkwy.stream/playlist.m3u8",
    "latitude": 38.941873,
    "referrer": "https://www.kandrive.gov/",
    "locationId": "KS_RU",
    "previewImageUrl": "https://kscam.carsprogram.org/snapshots/GEN_1-040-3820-2-US-40EastofClintonPkwy.jpeg",
    "name": "K-10 East of Clinton Pkwy",
    "targetCompressionRatio": 35,
    "id": 11400,
    "longitude": -95.320113
  },
  {
    "dateTime": 1693045247277,
    "videoStreamUrl": "https://cdn3.wowza.com/5/VE5YZ3J3eUtPL1I4/KDOT/1-010-0095-2-K-10EastofMichiganSt.stream/playlist.m3u8",
    "latitude": 38.923926,
    "referrer": "https://www.kandrive.gov/",
    "locationId": "KS_RU",
    "previewImageUrl": "https://kscam.carsprogram.org/snapshots/GEN_1-010-0095-2-K-10EastofMichiganSt.jpeg",
    "name": "K-10 east of Michigan St",
    "targetCompressionRatio": 35,
    "id": 11383,
    "longitude": -95.248408
  },
  {
    "dateTime": 1693045247277,
    "videoStreamUrl": "https://cdn3.wowza.com/5/VE5YZ3J3eUtPL1I4/KDOT/1-040-3800-2-US-40NorthofClintonPkwy.stream/playlist.m3u8",
    "latitude": 38.951763,
    "referrer": "https://www.kandrive.gov/",
    "locationId": "KS_RU",
    "previewImageUrl": "https://kscam.carsprogram.org/snapshots/GEN_1-040-3800-2-US-40NorthofClintonPkwy.jpeg",
    "name": "K-10 North of Clinton Pkwy",
    "targetCompressionRatio": 35,
    "id": 11399,
    "longitude": -95.336122
  },
  {
    "dateTime": 1693045247277,
    "videoStreamUrl": "https://cdn3.wowza.com/5/TkUxaGpnVUNpME1Z/KDOT/5-015-0721-2-K-15&47thSt.stream/playlist.m3u8",
    "latitude": 37.606051,
    "referrer": "https://www.kandrive.gov/",
    "locationId": "KS_WI",
    "previewImageUrl": "https://kscam.carsprogram.org/snapshots/GEN_5-015-0721-2-K-15&47THST.jpeg",
    "name": "K-15 and 47TH ST.",
    "targetCompressionRatio": 35,
    "id": 11390,
    "longitude": -97.291262
  },
  {
    "dateTime": 1693045247277,
    "videoStreamUrl": "https://cdn3.wowza.com/5/TkUxaGpnVUNpME1Z/KDOT/5-015-0682-2-K-15atBuckner.stream/playlist.m3u8",
    "latitude": 37.5524,
    "referrer": "https://www.kandrive.gov/",
    "locationId": "KS_WI",
    "previewImageUrl": "https://kscam.carsprogram.org/snapshots/GEN_5-015-0682-2-K-15atBuckner.jpeg",
    "name": "K-15 and BUCKNER ST.",
    "targetCompressionRatio": 35,
    "id": 11386,
    "longitude": -97.2714
  },
  {
    "dateTime": 1693045247277,
    "videoStreamUrl": "https://cdn3.wowza.com/5/TkUxaGpnVUNpME1Z/KDOT/5-015-0731-2-K-15&MacarthurRd.stream/playlist.m3u8",
    "latitude": 37.620135,
    "referrer": "https://www.kandrive.gov/",
    "locationId": "KS_WI",
    "previewImageUrl": "https://kscam.carsprogram.org/snapshots/GEN_5-015-0731-2-K-15&MACARTHURRD.jpeg",
    "name": "K-15 and MACARTHUR RD.",
    "targetCompressionRatio": 35,
    "id": 11391,
    "longitude": -97.294538
  },
  {
    "dateTime": 1693045247277,
    "videoStreamUrl": "https://cdn3.wowza.com/5/TkUxaGpnVUNpME1Z/KDOT/5-015-0679-2-K-15atMadison.stream/playlist.m3u8",
    "latitude": 37.548,
    "referrer": "https://www.kandrive.gov/",
    "locationId": "KS_WI",
    "previewImageUrl": "https://kscam.carsprogram.org/snapshots/GEN_5-015-0679-2-K-15atMadison.jpeg",
    "name": "K-15 and MADISON AVE.",
    "targetCompressionRatio": 35,
    "id": 11385,
    "longitude": -97.2703
  },
  {
    "dateTime": 1693045247277,
    "videoStreamUrl": "https://cdn3.wowza.com/5/TkUxaGpnVUNpME1Z/KDOT/5-015-0677-2-K-15atMarket.stream/playlist.m3u8",
    "latitude": 37.54424,
    "referrer": "https://www.kandrive.gov/",
    "locationId": "KS_WI",
    "previewImageUrl": "https://kscam.carsprogram.org/snapshots/GEN_5-015-0677-2-K-15atMarket.jpeg",
    "name": "K-15 and MARKET ST.",
    "targetCompressionRatio": 35,
    "id": 11384,
    "longitude": -97.27031
  },
  {
    "dateTime": 1693045247277,
    "videoStreamUrl": "https://cdn3.wowza.com/5/VE5YZ3J3eUtPL1I4/KDOT/5-015-0690-2-K-15&MeadowlarkRd71st.stream/playlist.m3u8",
    "latitude": 37.5626,
    "referrer": "https://www.kandrive.gov/",
    "locationId": "KS_WI",
    "previewImageUrl": "https://kscam.carsprogram.org/snapshots/GEN_5-015-0690-2-K-15&MEADOWLARKRD._71STST.jpeg",
    "name": "K-15 and MEADOWLARK RD. and 71ST ST.",
    "targetCompressionRatio": 35,
    "id": 11387,
    "longitude": -97.2765
  },
  {
    "dateTime": 1693045247277,
    "videoStreamUrl": "https://cdn3.wowza.com/5/TkUxaGpnVUNpME1Z/KDOT/5-015-0713-2-K-15&MixingYard55thSt.stream/playlist.m3u8",
    "latitude": 37.595808,
    "referrer": "https://www.kandrive.gov/",
    "locationId": "KS_WI",
    "previewImageUrl": "https://kscam.carsprogram.org/snapshots/GEN_5-015-0713-2-K-15&MIXINGYARD.jpeg",
    "name": "K-15 and MIXING YARD (55th Street)",
    "targetCompressionRatio": 35,
    "id": 11389,
    "longitude": -97.286902
  },
  {
    "dateTime": 1693045247277,
    "videoStreamUrl": "https://cdn3.wowza.com/5/VE5YZ3J3eUtPL1I4/KDOT/5-015-0700-2-K-15&PatriotAve63rd.stream/playlist.m3u8",
    "latitude": 37.577198,
    "referrer": "https://www.kandrive.gov/",
    "locationId": "KS_WI",
    "previewImageUrl": "https://kscam.carsprogram.org/snapshots/GEN_5-015-0700-2-K-15&PATRIOTAVE._63RDST.jpeg",
    "name": "K-15 and PATRIOT AVE. and 63RD ST.",
    "targetCompressionRatio": 35,
    "id": 11388,
    "longitude": -97.279973
  },
  {
    "dateTime": 1693045247277,
    "videoStreamUrl": "https://cdn3.wowza.com/5/TkUxaGpnVUNpME1Z/KDOT/5-254-0010-C-45th&HillsideTower.stream/playlist.m3u8",
    "latitude": 37.768454,
    "referrer": "https://www.kandrive.gov/",
    "locationId": "KS_WI",
    "previewImageUrl": "https://kscam.carsprogram.org/snapshots/GEN_5-254-0010-C-45th&HillsideTower.jpeg",
    "name": "K-254 at 45th and Hillside Tower",
    "targetCompressionRatio": 35,
    "id": 11537,
    "longitude": -97.297529
  },
  {
    "dateTime": 1703608281171,
    "videoStreamUrl": "https://cdn3.wowza.com/5/VE5YZ3J3eUtPL1I4/KDOT/5-254-0006-2 K-254EofHydraulicAve.stream/playlist.m3u8",
    "latitude": 37.766236,
    "referrer": "https://www.kandrive.gov/",
    "locationId": "KS_WI",
    "previewImageUrl": "https://kscam.carsprogram.org/snapshots/GEN_5-254-0006-2K-254EofHydraulicAve.jpeg",
    "name": "K-254 E of Hydraulic Ave",
    "targetCompressionRatio": 35,
    "id": 13505,
    "longitude": -97.31374
  },
  {
    "dateTime": 1703608281171,
    "videoStreamUrl": "https://cdn3.wowza.com/5/VE5YZ3J3eUtPL1I4/KDOT/5-254-0025-2K-254Wof53rd.stream/playlist.m3u8",
    "latitude": 37.780178,
    "referrer": "https://www.kandrive.gov/",
    "locationId": "KS_WI",
    "previewImageUrl": "https://kscam.carsprogram.org/snapshots/GEN_5-254-0025-2K-254Wof53rd.jpeg",
    "name": "K-254 W of 53rd",
    "targetCompressionRatio": 35,
    "id": 13506,
    "longitude": -97.289814
  },
  {
    "dateTime": 1703608281171,
    "videoStreamUrl": "https://cdn3.wowza.com/5/VE5YZ3J3eUtPL1I4/KDOT/5-254-0062-2K-254WofWebbRoad.stream/playlist.m3u8",
    "latitude": 37.796729,
    "referrer": "https://www.kandrive.gov/",
    "locationId": "KS_WI",
    "previewImageUrl": "https://kscam.carsprogram.org/snapshots/GEN_5-254-0062-2K-254WofWebbRoad.jpeg",
    "name": "K-254 W of Webb",
    "targetCompressionRatio": 35,
    "id": 13507,
    "longitude": -97.229647
  },
  {
    "dateTime": 1693045247277,
    "videoStreamUrl": "https://cdn3.wowza.com/5/TkUxaGpnVUNpME1Z/KDOT/5-096-2988-2-K-96at13th.stream/playlist.m3u8",
    "latitude": 37.708333,
    "referrer": "https://www.kandrive.gov/",
    "locationId": "KS_WI",
    "previewImageUrl": "https://kscam.carsprogram.org/snapshots/GEN_5-096-2988-2-K-96at13th.jpeg",
    "name": "K-96 at 13th",
    "targetCompressionRatio": 35,
    "id": 11492,
    "longitude": -97.201215
  },
  {
    "dateTime": 1693045247277,
    "videoStreamUrl": "https://cdn3.wowza.com/5/TkUxaGpnVUNpME1Z/KDOT/5-096-2977-2-K-96at21st.stream/playlist.m3u8",
    "latitude": 37.723388,
    "referrer": "https://www.kandrive.gov/",
    "locationId": "KS_WI",
    "previewImageUrl": "https://kscam.carsprogram.org/snapshots/GEN_5-096-2977-2-K-96at21st.jpeg",
    "name": "K-96 at 21st",
    "targetCompressionRatio": 35,
    "id": 11491,
    "longitude": -97.199252
  },
  {
    "dateTime": 1693045247277,
    "videoStreamUrl": "https://cdn3.wowza.com/5/TkUxaGpnVUNpME1Z/KDOT/5-096-3000-2-K-96atCentral.stream/playlist.m3u8",
    "latitude": 37.6938,
    "referrer": "https://www.kandrive.gov/",
    "locationId": "KS_WI",
    "previewImageUrl": "https://kscam.carsprogram.org/snapshots/GEN_5-096-3000-2-K-96atCentral.jpeg",
    "name": "K-96 at Central",
    "targetCompressionRatio": 35,
    "id": 11493,
    "longitude": -97.1872
  },
  {
    "dateTime": 1693045247277,
    "videoStreamUrl": "https://cdn3.wowza.com/5/TkUxaGpnVUNpME1Z/KDOT/5-096-2934-2-K-96atChisholmCreek.stream/playlist.m3u8",
    "latitude": 37.745217,
    "referrer": "https://www.kandrive.gov/",
    "locationId": "KS_WI",
    "previewImageUrl": "https://kscam.carsprogram.org/snapshots/GEN_5-096-2934-2-K-96atChisholmCreek.jpeg",
    "name": "K-96 at Chisholm Creek",
    "targetCompressionRatio": 35,
    "id": 11485,
    "longitude": -97.266039
  },
  {
    "dateTime": 1693045247277,
    "videoStreamUrl": "https://cdn3.wowza.com/5/TkUxaGpnVUNpME1Z/KDOT/5-096-2970-2-K-96atGreenwich.stream/playlist.m3u8",
    "latitude": 37.729804,
    "referrer": "https://www.kandrive.gov/",
    "locationId": "KS_WI",
    "previewImageUrl": "https://kscam.carsprogram.org/snapshots/GEN_5-096-2970-2-K-96atGreenwich.jpeg",
    "name": "K-96 at Greenwich",
    "targetCompressionRatio": 35,
    "id": 11490,
    "longitude": -97.207569
  },
  {
    "dateTime": 1693045247277,
    "videoStreamUrl": "https://cdn3.wowza.com/5/TkUxaGpnVUNpME1Z/KDOT/5-096-2918-2-K-96atHillside.stream/playlist.m3u8",
    "latitude": 37.743383,
    "referrer": "https://www.kandrive.gov/",
    "locationId": "KS_WI",
    "previewImageUrl": "https://kscam.carsprogram.org/snapshots/GEN_5-096-2918-2-K-96atHillside.jpeg",
    "name": "K-96 at Hillside",
    "targetCompressionRatio": 35,
    "id": 11483,
    "longitude": -97.295752
  },
  {
    "dateTime": 1693045247277,
    "videoStreamUrl": "https://cdn3.wowza.com/5/TkUxaGpnVUNpME1Z/KDOT/5-096-2910-2-K-96atHydraulic.stream/playlist.m3u8",
    "latitude": 37.743892,
    "referrer": "https://www.kandrive.gov/",
    "locationId": "KS_WI",
    "previewImageUrl": "https://kscam.carsprogram.org/snapshots/GEN_5-096-2910-2-K-96atHydraulic.jpeg",
    "name": "K-96 at Hydraulic",
    "targetCompressionRatio": 35,
    "id": 11482,
    "longitude": -97.307804
  },
  {
    "dateTime": 1693045247277,
    "videoStreamUrl": "https://cdn3.wowza.com/5/TkUxaGpnVUNpME1Z/KDOT/5-096-2852-2-K-96atMeridian.stream/playlist.m3u8",
    "latitude": 37.7582,
    "referrer": "https://www.kandrive.gov/",
    "locationId": "KS_WI",
    "previewImageUrl": "https://kscam.carsprogram.org/snapshots/GEN_5-096-2852-2-K-96atMeridian.jpeg",
    "name": "K-96 at Meridian",
    "targetCompressionRatio": 35,
    "id": 11481,
    "longitude": -97.37
  },
  {
    "dateTime": 1693045247277,
    "videoStreamUrl": "https://cdn3.wowza.com/5/TkUxaGpnVUNpME1Z/KDOT/5-096-2926-2-K-96atOliver.stream/playlist.m3u8",
    "latitude": 37.745775,
    "referrer": "https://www.kandrive.gov/",
    "locationId": "KS_WI",
    "previewImageUrl": "https://kscam.carsprogram.org/snapshots/GEN_5-096-2926-2-K-96atOliver.jpeg",
    "name": "K-96 at Oliver",
    "targetCompressionRatio": 35,
    "id": 11484,
    "longitude": -97.281007
  },
  {
    "dateTime": 1693045247277,
    "videoStreamUrl": "https://cdn3.wowza.com/5/TkUxaGpnVUNpME1Z/KDOT/5-096-2951-2-K-96atRock.stream/playlist.m3u8",
    "latitude": 37.744285,
    "referrer": "https://www.kandrive.gov/",
    "locationId": "KS_WI",
    "previewImageUrl": "https://kscam.carsprogram.org/snapshots/GEN_5-096-2951-2-K-96atRock.jpeg",
    "name": "K-96 at Rock",
    "targetCompressionRatio": 35,
    "id": 11487,
    "longitude": -97.234907
  },
  {
    "dateTime": 1693045247277,
    "videoStreamUrl": "https://cdn3.wowza.com/5/TkUxaGpnVUNpME1Z/KDOT/5-096-3011-2-K-96atUS-54.stream/playlist.m3u8",
    "latitude": 37.678893,
    "referrer": "https://www.kandrive.gov/",
    "locationId": "KS_WI",
    "previewImageUrl": "https://kscam.carsprogram.org/snapshots/GEN_5-096-3011-2-K-96atUS-54.jpeg",
    "name": "K-96 at US-54",
    "targetCompressionRatio": 35,
    "id": 11496,
    "longitude": -97.185412
  },
  {
    "dateTime": 1693045247277,
    "videoStreamUrl": "https://cdn3.wowza.com/5/TkUxaGpnVUNpME1Z/KDOT/5-096-2957-2-K-96atWebb.stream/playlist.m3u8",
    "latitude": 37.738807,
    "referrer": "https://www.kandrive.gov/",
    "locationId": "KS_WI",
    "previewImageUrl": "https://kscam.carsprogram.org/snapshots/GEN_5-096-2957-2-K-96atWebb.jpeg",
    "name": "K-96 at Webb",
    "targetCompressionRatio": 35,
    "id": 11488,
    "longitude": -97.227055
  },
  {
    "dateTime": 1693045247277,
    "videoStreamUrl": "https://cdn3.wowza.com/5/TkUxaGpnVUNpME1Z/KDOT/5-096-2844-2-K-96atWestSt.stream/playlist.m3u8",
    "latitude": 37.753646,
    "referrer": "https://www.kandrive.gov/",
    "locationId": "KS_WI",
    "previewImageUrl": "https://kscam.carsprogram.org/snapshots/GEN_5-096-2844-2-K-96atWestSt.jpeg",
    "name": "K-96 at West",
    "targetCompressionRatio": 35,
    "id": 11479,
    "longitude": -97.382521
  },
  {
    "dateTime": 1693045247277,
    "videoStreamUrl": "https://cdn3.wowza.com/5/TkUxaGpnVUNpME1Z/KDOT/5-096-2942-2-K-96atWoodlawn.stream/playlist.m3u8",
    "latitude": 37.745687,
    "referrer": "https://www.kandrive.gov/",
    "locationId": "KS_WI",
    "previewImageUrl": "https://kscam.carsprogram.org/snapshots/GEN_5-096-2942-2-K-96atWoodlawn.jpeg",
    "name": "K-96 at Woodlawn",
    "targetCompressionRatio": 35,
    "id": 11486,
    "longitude": -97.253185
  },
  {
    "dateTime": 1693045247277,
    "videoStreamUrl": "https://cdn3.wowza.com/5/TkUxaGpnVUNpME1Z/KDOT/5-096-3008-2-K-96NorthofUS-54N.stream/playlist.m3u8",
    "latitude": 37.682102,
    "referrer": "https://www.kandrive.gov/",
    "locationId": "KS_WI",
    "previewImageUrl": "https://kscam.carsprogram.org/snapshots/GEN_5-096-3008-2-K-96NorthofUS-54N.jpeg",
    "name": "K-96 North of US-54 N",
    "targetCompressionRatio": 35,
    "id": 11494,
    "longitude": -97.185797
  },
  {
    "dateTime": 1693045247277,
    "videoStreamUrl": "https://cdn3.wowza.com/5/TkUxaGpnVUNpME1Z/KDOT/5-096-3009-2-K-96NorthofUS-54S.stream/playlist.m3u8",
    "latitude": 37.682073,
    "referrer": "https://www.kandrive.gov/",
    "locationId": "KS_WI",
    "previewImageUrl": "https://kscam.carsprogram.org/snapshots/GEN_5-096-3009-2-K-96NorthofUS-54S.jpeg",
    "name": "K-96 North of US-54 S",
    "targetCompressionRatio": 35,
    "id": 11495,
    "longitude": -97.185799
  },
  {
    "dateTime": 1693045247277,
    "videoStreamUrl": "https://cdn3.wowza.com/5/VE5YZ3J3eUtPL1I4/KDOT/4-166-1636-2-US-166atGalenaMM163-6.stream/playlist.m3u8",
    "latitude": 37.00726,
    "referrer": "https://www.kandrive.gov/",
    "locationId": "KS_RU",
    "previewImageUrl": "https://kscam.carsprogram.org/snapshots/GEN_US-166atGalenaMM163.6.jpeg",
    "name": "US-166 at Galena MM 163.6",
    "targetCompressionRatio": 35,
    "id": 11440,
    "longitude": -94.620416
  },
  {
    "dateTime": 1693045247277,
    "videoStreamUrl": "https://cdn3.wowza.com/5/TkUxaGpnVUNpME1Z/KDOT/6-050-0710-2-US-50NB&SpruceGardenCity.stream/playlist.m3u8",
    "latitude": 37.970235,
    "referrer": "https://www.kandrive.gov/",
    "locationId": "KS_RU",
    "previewImageUrl": "https://kscam.carsprogram.org/snapshots/GEN_6-050-0710-2-US-50NB&Spruce_GardenCity.jpeg",
    "name": "US-50 NB and Spruce and Garden City",
    "targetCompressionRatio": 35,
    "id": 11404,
    "longitude": -100.838648
  },
  {
    "dateTime": 1693045247277,
    "videoStreamUrl": "https://cdn3.wowza.com/5/TkUxaGpnVUNpME1Z/KDOT/5-054-2207-2-US-54atArmour.stream/playlist.m3u8",
    "latitude": 37.679601,
    "referrer": "https://www.kandrive.gov/",
    "locationId": "KS_WI",
    "previewImageUrl": "https://kscam.carsprogram.org/snapshots/GEN_5-054-2207-2-US-54atArmour.jpeg",
    "name": "US-54 at Armour",
    "targetCompressionRatio": 35,
    "id": 11433,
    "longitude": -97.247281
  },
  {
    "dateTime": 1693045247277,
    "videoStreamUrl": "https://cdn3.wowza.com/5/TkUxaGpnVUNpME1Z/KDOT/5-054-2116-2-US-54atDugan.stream/playlist.m3u8",
    "latitude": 37.672693,
    "referrer": "https://www.kandrive.gov/",
    "locationId": "KS_WI",
    "previewImageUrl": "https://kscam.carsprogram.org/snapshots/GEN_5-054-2116-2-US-54atDugan.jpeg",
    "name": "US-54 at Dugan",
    "targetCompressionRatio": 35,
    "id": 11418,
    "longitude": -97.41484
  },
  {
    "dateTime": 1693045247277,
    "videoStreamUrl": "https://cdn3.wowza.com/5/TkUxaGpnVUNpME1Z/KDOT/5-054-2213-2-US-54atEastern.stream/playlist.m3u8",
    "latitude": 37.679593,
    "referrer": "https://www.kandrive.gov/",
    "locationId": "KS_WI",
    "previewImageUrl": "https://kscam.carsprogram.org/snapshots/GEN_5-054-2213-2-US-54atEastern.jpeg",
    "name": "US-54 at Eastern",
    "targetCompressionRatio": 35,
    "id": 11434,
    "longitude": -97.235914
  },
  {
    "dateTime": 1693045247277,
    "videoStreamUrl": "https://cdn3.wowza.com/5/TkUxaGpnVUNpME1Z/KDOT/5-054-2192-2-US-54atEdgemoor.stream/playlist.m3u8",
    "latitude": 37.679695,
    "referrer": "https://www.kandrive.gov/",
    "locationId": "KS_WI",
    "previewImageUrl": "https://kscam.carsprogram.org/snapshots/GEN_5-054-2192-2-US-54atEdgemoor.jpeg",
    "name": "US-54 at Edgemoor",
    "targetCompressionRatio": 35,
    "id": 11431,
    "longitude": -97.27398
  },
  {
    "dateTime": 1693045247277,
    "videoStreamUrl": "https://cdn3.wowza.com/5/TkUxaGpnVUNpME1Z/KDOT/5-054-2228-2-US-54atGreenwich.stream/playlist.m3u8",
    "latitude": 37.679377,
    "referrer": "https://www.kandrive.gov/",
    "locationId": "KS_WI",
    "previewImageUrl": "https://kscam.carsprogram.org/snapshots/GEN_5-054-2228-2-US-54atGreenwich.jpeg",
    "name": "US-54 at Greenwich",
    "targetCompressionRatio": 35,
    "id": 11437,
    "longitude": -97.208728
  },
  {
    "dateTime": 1693045247277,
    "videoStreamUrl": "https://cdn3.wowza.com/5/TkUxaGpnVUNpME1Z/KDOT/5-054-2178-2-US-54atHillside.stream/playlist.m3u8",
    "latitude": 37.679158,
    "referrer": "https://www.kandrive.gov/",
    "locationId": "KS_WI",
    "previewImageUrl": "https://kscam.carsprogram.org/snapshots/GEN_5-054-2178-2-US-54atHillside.jpeg",
    "name": "US-54 at Hillside",
    "targetCompressionRatio": 35,
    "id": 11429,
    "longitude": -97.298436
  },
  {
    "dateTime": 1693045247277,
    "videoStreamUrl": "https://cdn3.wowza.com/5/TkUxaGpnVUNpME1Z/KDOT/5-054-2118-2-US-54atHoover.stream/playlist.m3u8",
    "latitude": 37.673186,
    "referrer": "https://www.kandrive.gov/",
    "locationId": "KS_WI",
    "previewImageUrl": "https://kscam.carsprogram.org/snapshots/GEN_5-054-2118-2-US-54atHoover.jpeg",
    "name": "US-54 at Hoover",
    "targetCompressionRatio": 35,
    "id": 11419,
    "longitude": -97.410219
  },
  {
    "dateTime": 1693045247277,
    "videoStreamUrl": "https://cdn3.wowza.com/5/TkUxaGpnVUNpME1Z/KDOT/5-054-2170-2-US-54atI-135E.stream/playlist.m3u8",
    "latitude": 37.679287,
    "referrer": "https://www.kandrive.gov/",
    "locationId": "KS_WI",
    "previewImageUrl": "https://kscam.carsprogram.org/snapshots/GEN_5-054-2170-2-US-54atI-135E.jpeg",
    "name": "US-54 at I-135 E",
    "targetCompressionRatio": 35,
    "id": 11428,
    "longitude": -97.311566
  },
  {
    "dateTime": 1693045247277,
    "videoStreamUrl": "https://cdn3.wowza.com/5/TkUxaGpnVUNpME1Z/KDOT/5-054-2168-2-US-54atI-135W.stream/playlist.m3u8",
    "latitude": 37.679053,
    "referrer": "https://www.kandrive.gov/",
    "locationId": "KS_WI",
    "previewImageUrl": "https://kscam.carsprogram.org/snapshots/GEN_5-054-2168-2-US-54atI-135W.jpeg",
    "name": "US-54 at I-135 W",
    "targetCompressionRatio": 35,
    "id": 11427,
    "longitude": -97.316896
  },
  {
    "dateTime": 1693045247277,
    "videoStreamUrl": "https://cdn3.wowza.com/5/TkUxaGpnVUNpME1Z/KDOT/5-054-2123-2-US-54atI-235.stream/playlist.m3u8",
    "latitude": 37.67359,
    "referrer": "https://www.kandrive.gov/",
    "locationId": "KS_WI",
    "previewImageUrl": "https://kscam.carsprogram.org/snapshots/GEN_5-054-2123-2-US-54atI-235.jpeg",
    "name": "US-54 at I-235",
    "targetCompressionRatio": 35,
    "id": 11420,
    "longitude": -97.401515
  },
  {
    "dateTime": 1693045247277,
    "videoStreamUrl": "https://cdn3.wowza.com/5/TkUxaGpnVUNpME1Z/KDOT/5-054-2089-2-US-54atMaize.stream/playlist.m3u8",
    "latitude": 37.665752,
    "referrer": "https://www.kandrive.gov/",
    "locationId": "KS_WI",
    "previewImageUrl": "https://kscam.carsprogram.org/snapshots/GEN_5-054-2089-2-US-54atMaize.jpeg",
    "name": "US-54 at Maize",
    "targetCompressionRatio": 35,
    "id": 11414,
    "longitude": -97.4601
  },
  {
    "dateTime": 1693045247277,
    "videoStreamUrl": "https://cdn3.wowza.com/5/TkUxaGpnVUNpME1Z/KDOT/5-054-2108-2-US-54atMid-ContinentE.stream/playlist.m3u8",
    "latitude": 37.672685,
    "referrer": "https://www.kandrive.gov/",
    "locationId": "KS_WI",
    "previewImageUrl": "https://kscam.carsprogram.org/snapshots/GEN_5-054-2108-2-US-54atMid-ContinentE.jpeg",
    "name": "US-54 at Mid-Continent E",
    "targetCompressionRatio": 35,
    "id": 11417,
    "longitude": -97.427593
  },
  {
    "dateTime": 1693045247277,
    "videoStreamUrl": "https://cdn3.wowza.com/5/TkUxaGpnVUNpME1Z/KDOT/5-054-2107-2-US-54atMid-ContinentW.stream/playlist.m3u8",
    "latitude": 37.6742,
    "referrer": "https://www.kandrive.gov/",
    "locationId": "KS_WI",
    "previewImageUrl": "https://kscam.carsprogram.org/snapshots/GEN_5-054-2107-2-US-54atMid-ContinentW.jpeg",
    "name": "US-54 at Mid-Continent W",
    "targetCompressionRatio": 35,
    "id": 11416,
    "longitude": -97.428935
  },
  {
    "dateTime": 1693045247277,
    "videoStreamUrl": "https://cdn3.wowza.com/5/TkUxaGpnVUNpME1Z/KDOT/5-054-2186-2-US-54atOliver.stream/playlist.m3u8",
    "latitude": 37.678929,
    "referrer": "https://www.kandrive.gov/",
    "locationId": "KS_WI",
    "previewImageUrl": "https://kscam.carsprogram.org/snapshots/GEN_5-054-2186-2-US-54atOliver.jpeg",
    "name": "US-54 at Oliver",
    "targetCompressionRatio": 35,
    "id": 11430,
    "longitude": -97.285611
  },
  {
    "dateTime": 1693045247277,
    "videoStreamUrl": "https://cdn3.wowza.com/5/TkUxaGpnVUNpME1Z/KDOT/5-054-2144-2-US-54atSeneca.stream/playlist.m3u8",
    "latitude": 37.67651,
    "referrer": "https://www.kandrive.gov/",
    "locationId": "KS_WI",
    "previewImageUrl": "https://kscam.carsprogram.org/snapshots/GEN_5-054-2144-2-US-54atSeneca.jpeg",
    "name": "US-54 at Seneca",
    "targetCompressionRatio": 35,
    "id": 11423,
    "longitude": -97.359915
  },
  {
    "dateTime": 1693045247277,
    "videoStreamUrl": "https://cdn3.wowza.com/5/TkUxaGpnVUNpME1Z/KDOT/5-054-2136-2-US-54atSWBlvd.stream/playlist.m3u8",
    "latitude": 37.674675,
    "referrer": "https://www.kandrive.gov/",
    "locationId": "KS_WI",
    "previewImageUrl": "https://kscam.carsprogram.org/snapshots/GEN_5-054-2136-2-US-54atSWBlvd.jpeg",
    "name": "US-54 at SW Blvd",
    "targetCompressionRatio": 35,
    "id": 11422,
    "longitude": -97.374194
  },
  {
    "dateTime": 1693045247277,
    "videoStreamUrl": "https://cdn3.wowza.com/5/TkUxaGpnVUNpME1Z/KDOT/5-054-2151-2-US-54atSycamore.stream/playlist.m3u8",
    "latitude": 37.677481,
    "referrer": "https://www.kandrive.gov/",
    "locationId": "KS_WI",
    "previewImageUrl": "https://kscam.carsprogram.org/snapshots/GEN_5-054-2151-2-US-54atSycamore.jpeg",
    "name": "US-54 at Sycamore",
    "targetCompressionRatio": 35,
    "id": 11424,
    "longitude": -97.347864
  },
  {
    "dateTime": 1693045247277,
    "videoStreamUrl": "https://cdn3.wowza.com/5/TkUxaGpnVUNpME1Z/KDOT/5-054-2159-2-US-54atTopeka.stream/playlist.m3u8",
    "latitude": 37.678881,
    "referrer": "https://www.kandrive.gov/",
    "locationId": "KS_WI",
    "previewImageUrl": "https://kscam.carsprogram.org/snapshots/GEN_5-054-2159-2-US-54atTopeka.jpeg",
    "name": "US-54 at Topeka",
    "targetCompressionRatio": 35,
    "id": 11425,
    "longitude": -97.334121
  },
  {
    "dateTime": 1693045247277,
    "videoStreamUrl": "https://cdn3.wowza.com/5/TkUxaGpnVUNpME1Z/KDOT/5-054-2097-2-US-54atTyler.stream/playlist.m3u8",
    "latitude": 37.670318,
    "referrer": "https://www.kandrive.gov/",
    "locationId": "KS_WI",
    "previewImageUrl": "https://kscam.carsprogram.org/snapshots/GEN_5-054-2097-2-US-54atTyler.jpeg",
    "name": "US-54 at Tyler",
    "targetCompressionRatio": 35,
    "id": 11415,
    "longitude": -97.446048
  },
  {
    "dateTime": 1693045247277,
    "videoStreamUrl": "https://cdn3.wowza.com/5/TkUxaGpnVUNpME1Z/KDOT/5-054-1570-2-US-54atUS-400WBMM157.stream/playlist.m3u8",
    "latitude": 37.58579,
    "referrer": "https://www.kandrive.gov/",
    "locationId": "KS_RU",
    "previewImageUrl": "https://kscam.carsprogram.org/snapshots/GEN_5-054-1570-2-US-54atUS-400WBMM157.jpeg",
    "name": "US-54 at US-400 (Mullinville) WB MM 157",
    "targetCompressionRatio": 35,
    "id": 11409,
    "longitude": -99.45233
  },
  {
    "dateTime": 1693045247277,
    "videoStreamUrl": "https://cdn3.wowza.com/5/TkUxaGpnVUNpME1Z/KDOT/5-054-2164-2-US-54atWashington.stream/playlist.m3u8",
    "latitude": 37.679018,
    "referrer": "https://www.kandrive.gov/",
    "locationId": "KS_WI",
    "previewImageUrl": "https://kscam.carsprogram.org/snapshots/GEN_5-054-2164-2-US-54atWashington.jpeg",
    "name": "US-54 at Washington",
    "targetCompressionRatio": 35,
    "id": 11426,
    "longitude": -97.326009
  },
  {
    "dateTime": 1693045247277,
    "videoStreamUrl": "https://cdn3.wowza.com/5/TkUxaGpnVUNpME1Z/KDOT/5-054-2221-2-US-54atWebbRd.stream/playlist.m3u8",
    "latitude": 37.679354,
    "referrer": "https://www.kandrive.gov/",
    "locationId": "KS_WI",
    "previewImageUrl": "https://kscam.carsprogram.org/snapshots/GEN_5-054-2221-2-US-54atWebbRd.jpeg",
    "name": "US-54 at Webb Rd",
    "targetCompressionRatio": 35,
    "id": 11435,
    "longitude": -97.2213
  },
  {
    "dateTime": 1693045247277,
    "videoStreamUrl": "https://cdn3.wowza.com/5/TkUxaGpnVUNpME1Z/KDOT/5-054-2129-2-US-54atWestSt.stream/playlist.m3u8",
    "latitude": 37.673362,
    "referrer": "https://www.kandrive.gov/",
    "locationId": "KS_WI",
    "previewImageUrl": "https://kscam.carsprogram.org/snapshots/GEN_5-054-2129-2-US-54atWestSt.jpeg",
    "name": "US-54 at West St",
    "targetCompressionRatio": 35,
    "id": 11421,
    "longitude": -97.388278
  },
  {
    "dateTime": 1693045247277,
    "videoStreamUrl": "https://cdn3.wowza.com/5/TkUxaGpnVUNpME1Z/KDOT/5-054-2222-2-US-54atWildcatLn.stream/playlist.m3u8",
    "latitude": 37.679259,
    "referrer": "https://www.kandrive.gov/",
    "locationId": "KS_WI",
    "previewImageUrl": "https://kscam.carsprogram.org/snapshots/GEN_5-054-2222-2-US-54atWildcatLn.jpeg",
    "name": "US-54 at Wildcat Ln",
    "targetCompressionRatio": 35,
    "id": 11436,
    "longitude": -97.22328
  },
  {
    "dateTime": 1693045247277,
    "videoStreamUrl": "https://cdn3.wowza.com/5/TkUxaGpnVUNpME1Z/KDOT/5-054-2196-2-US-54atWoodlawn.stream/playlist.m3u8",
    "latitude": 37.679579,
    "referrer": "https://www.kandrive.gov/",
    "locationId": "KS_WI",
    "previewImageUrl": "https://kscam.carsprogram.org/snapshots/GEN_5-054-2196-2-US-54atWoodlawn.jpeg",
    "name": "US-54 at Woodlawn",
    "targetCompressionRatio": 35,
    "id": 11432,
    "longitude": -97.259479
  },
  {
    "dateTime": 1693045247277,
    "videoStreamUrl": "https://cdn3.wowza.com/5/TkUxaGpnVUNpME1Z/KDOT/5-054-2233-2-US-54atZelta.stream/playlist.m3u8",
    "latitude": 37.679517,
    "referrer": "https://www.kandrive.gov/",
    "locationId": "KS_WI",
    "previewImageUrl": "https://kscam.carsprogram.org/snapshots/GEN_5-054-2233-2-US-54atZelta.jpeg",
    "name": "US-54 at Zelta",
    "targetCompressionRatio": 35,
    "id": 11438,
    "longitude": -97.19711
  },
  {
    "dateTime": 1693045247277,
    "videoStreamUrl": "https://cdn3.wowza.com/5/TkUxaGpnVUNpME1Z/KDOT/5-054-2255-2-US-54at143rd.stream/playlist.m3u8",
    "latitude": 37.67954,
    "referrer": "https://www.kandrive.gov/",
    "locationId": "KS_WI",
    "previewImageUrl": "https://kscam.carsprogram.org/snapshots/GEN_5-054-2255-2-US-54at143rd.jpeg",
    "name": "US-54 East of 143rd",
    "targetCompressionRatio": 35,
    "id": 11439,
    "longitude": -97.158536
  },
  {
    "dateTime": 1693045247277,
    "videoStreamUrl": "https://cdn3.wowza.com/5/TkUxaGpnVUNpME1Z/KDOT/6-054-0010-2-US-54southofLiberal.stream/playlist.m3u8",
    "latitude": 36.998252,
    "referrer": "https://www.kandrive.gov/",
    "locationId": "KS_RU",
    "previewImageUrl": "https://kscam.carsprogram.org/snapshots/GEN_6-054-0010-2-US-54southofLiberal.jpeg",
    "name": "US-54 south of Liberal",
    "targetCompressionRatio": 35,
    "id": 11406,
    "longitude": -100.995694
  },
  {
    "dateTime": 1693045247277,
    "videoStreamUrl": "https://cdn3.wowza.com/5/VE5YZ3J3eUtPL1I4/KDOT/4-069-0300-2-US-69atHwy400.stream/playlist.m3u8",
    "latitude": 37.338753,
    "referrer": "https://www.kandrive.gov/",
    "locationId": "KS_RU",
    "previewImageUrl": "https://kscam.carsprogram.org/snapshots/GEN_4-069-0300-2-US-69atHwy400.jpeg",
    "name": "US-69 at Hwy 400",
    "targetCompressionRatio": 35,
    "id": 11442,
    "longitude": -94.705661
  },
  {
    "dateTime": 1693045247277,
    "videoStreamUrl": "https://cdn3.wowza.com/5/VE5YZ3J3eUtPL1I4/KDOT/4-069-0300-2-US69atKansasCrossingCasino.stream/playlist.m3u8",
    "latitude": 37.345185,
    "referrer": "https://www.kandrive.gov/",
    "locationId": "KS_RU",
    "previewImageUrl": "https://kscam.carsprogram.org/snapshots/GEN_4-069-0300-2-US69atKansasCrossingCasino.jpeg",
    "name": "US-69 at Kansas Crossing Casino",
    "targetCompressionRatio": 35,
    "id": 11443,
    "longitude": -94.707219
  },
  {
    "dateTime": 1693045247277,
    "videoStreamUrl": "https://cdn3.wowza.com/5/TkUxaGpnVUNpME1Z/KDOT/4-069-0320-2-US69southofPittsburg.stream/playlist.m3u8",
    "latitude": 37.3694,
    "referrer": "https://www.kandrive.gov/",
    "locationId": "KS_RU",
    "previewImageUrl": "https://kscam.carsprogram.org/snapshots/GEN_4-069-0320-2-US69southofPittsburg.jpeg",
    "name": "US-69 south of Pittsburg",
    "targetCompressionRatio": 35,
    "id": 11444,
    "longitude": -94.7089
  },
  {
    "dateTime": 1703608281171,
    "videoStreamUrl": "https://cdn3.wowza.com/5/VE5YZ3J3eUtPL1I4/KDOT/1-075-1780-2-US75&CR150.stream/playlist.m3u8",
    "latitude": 39.319024,
    "referrer": "https://www.kandrive.gov/",
    "locationId": "KS_RU",
    "previewImageUrl": "https://kscam.carsprogram.org/snapshots/GEN_1-075-1780-2-US75&CR150.jpeg",
    "name": "US-75 and CR 150",
    "targetCompressionRatio": 35,
    "id": 13500,
    "longitude": -95.720429
  },
  {
    "dateTime": 1693045247277,
    "videoStreamUrl": "https://cdn3.wowza.com/5/VE5YZ3J3eUtPL1I4/KDOT/1-075-1620-2-US75&US24.stream/playlist.m3u8",
    "latitude": 39.09022,
    "referrer": "https://www.kandrive.gov/",
    "locationId": "KS_RU",
    "previewImageUrl": "https://kscam.carsprogram.org/snapshots/GEN_1-075-1620-2-US75&US24.jpeg",
    "name": "US-75 and US 24",
    "targetCompressionRatio": 35,
    "id": 11476,
    "longitude": -95.728358
  },
  {
    "dateTime": 1693045247277,
    "videoStreamUrl": "https://cdn3.wowza.com/5/TkUxaGpnVUNpME1Z/KDOT/2-081-1890-2-U-81&U24.stream/playlist.m3u8",
    "latitude": 39.365253,
    "referrer": "https://www.kandrive.gov/",
    "locationId": "KS_RU",
    "previewImageUrl": "https://kscam.carsprogram.org/snapshots/GEN_2-081-1890-2-U-81&U24.jpeg",
    "name": "US-81 and U24",
    "targetCompressionRatio": 35,
    "id": 11477,
    "longitude": -97.666506
  },
  {
    "dateTime": 1693045247277,
    "videoStreamUrl": "https://cdn3.wowza.com/5/TkUxaGpnVUNpME1Z/KDOT/2-081-2230-2-US81northofBelleville.stream/playlist.m3u8",
    "latitude": 39.848664,
    "referrer": "https://www.kandrive.gov/",
    "locationId": "KS_RU",
    "previewImageUrl": "https://kscam.carsprogram.org/snapshots/GEN_2-081-2230-2-US81northofBelleville.jpeg",
    "name": "US-81 north of Belleville",
    "targetCompressionRatio": 35,
    "id": 11478,
    "longitude": -97.629586
  }
]
