[
  {
    "dateTime": 1675533259228,
    "videoStreamUrl": "https://s53.nysdot.skyvdn.com:443/rtplive/R4_082/playlist.m3u8",
    "latitude": 43.2226,
    "referrer": null,
    "locationId": "NY_RU",
    "previewImageUrl": "https://511ny.org/map/Cctv/8279--41",
    "name": "104 at Basket Road",
    "targetCompressionRatio": 35,
    "id": 4554,
    "longitude": -77.389
  },
  {
    "dateTime": 1675533259228,
    "videoStreamUrl": "https://s53.nysdot.skyvdn.com:443/rtplive/R4_083/playlist.m3u8",
    "latitude": 43.214669,
    "referrer": null,
    "locationId": "NY_RO",
    "previewImageUrl": "https://511ny.org/map/Cctv/8281--41",
    "name": "104 at Gravel Road",
    "targetCompressionRatio": 35,
    "id": 4555,
    "longitude": -77.488839
  },
  {
    "dateTime": 1675533259228,
    "videoStreamUrl": "https://s53.nysdot.skyvdn.com:443/rtplive/R10_178/playlist.m3u8",
    "latitude": 40.799118,
    "referrer": null,
    "locationId": "NY_LI",
    "previewImageUrl": "https://511ny.org/map/Cctv/2231--1",
    "name": "110 at Melville Mall South Driveway",
    "targetCompressionRatio": 35,
    "id": 4628,
    "longitude": -73.412322
  },
  {
    "dateTime": 1675533259228,
    "videoStreamUrl": "https://s53.nysdot.skyvdn.com:443/rtplive/R10_177/playlist.m3u8",
    "latitude": 40.793763,
    "referrer": null,
    "locationId": "NY_LI",
    "previewImageUrl": "https://511ny.org/map/Cctv/2230--1",
    "name": "110 at Old Country Rd",
    "targetCompressionRatio": 35,
    "id": 4627,
    "longitude": -73.415011
  },
  {
    "dateTime": 1675533259228,
    "videoStreamUrl": "https://s53.nysdot.skyvdn.com:443/rtplive/R10_089/playlist.m3u8",
    "latitude": 40.797584,
    "referrer": null,
    "locationId": "NY_LI",
    "previewImageUrl": "https://511ny.org/map/Cctv/2202--1",
    "name": "110 at Westbound NSP Exit Ramp",
    "targetCompressionRatio": 35,
    "id": 4626,
    "longitude": -73.412741
  },
  {
    "dateTime": 1675533259228,
    "videoStreamUrl": "https://s53.nysdot.skyvdn.com:443/rtplive/R10_176/playlist.m3u8",
    "latitude": 40.748302,
    "referrer": null,
    "locationId": "NY_NYC",
    "previewImageUrl": "https://511ny.org/map/Cctv/2229--1",
    "name": "295 Just South of VMS66",
    "targetCompressionRatio": 35,
    "id": 5008,
    "longitude": -73.773739
  },
  {
    "dateTime": 1675533259228,
    "videoStreamUrl": "https://s53.nysdot.skyvdn.com:443/rtplive/R4_084/playlist.m3u8",
    "latitude": 43.179122,
    "referrer": null,
    "locationId": "NY_RO",
    "previewImageUrl": "https://511ny.org/map/Cctv/8297--41",
    "name": "390 at Lexington Avenue",
    "targetCompressionRatio": 35,
    "id": 4556,
    "longitude": -77.683306
  },
  {
    "dateTime": 1675533259228,
    "videoStreamUrl": "https://s52.nysdot.skyvdn.com:443/rtplive/R4_014/playlist.m3u8",
    "latitude": 43.1645,
    "referrer": null,
    "locationId": "NY_RO",
    "previewImageUrl": "https://511ny.org/map/Cctv/6117--41",
    "name": "390 at Lyell Ave",
    "targetCompressionRatio": 35,
    "id": 4571,
    "longitude": -77.683375
  },
  {
    "dateTime": 1675533259228,
    "videoStreamUrl": "https://s52.nysdot.skyvdn.com:443/rtplive/R4_016/playlist.m3u8",
    "latitude": 43.223474,
    "referrer": null,
    "locationId": "NY_RO",
    "previewImageUrl": "https://511ny.org/map/Cctv/1804--41",
    "name": "390 at Maiden Lane",
    "targetCompressionRatio": 35,
    "id": 4568,
    "longitude": -77.67509
  },
  {
    "dateTime": 1704113852689,
    "videoStreamUrl": "https://s51.nysdot.skyvdn.com:443/rtplive/R8_123/playlist.m3u8",
    "latitude": 40.987664,
    "referrer": null,
    "locationId": "NY_NYC",
    "previewImageUrl": "https://511ny.org/map/Cctv/10316--13",
    "name": "43A at Jackson Ave MM 3.89",
    "targetCompressionRatio": 35,
    "id": 16013,
    "longitude": -73.838608
  },
  {
    "dateTime": 1675533259228,
    "videoStreamUrl": "https://s53.nysdot.skyvdn.com:443/rtplive/R4_085/playlist.m3u8",
    "latitude": 43.141669,
    "referrer": null,
    "locationId": "NY_RO",
    "previewImageUrl": "https://511ny.org/map/Cctv/8236--41",
    "name": "490 at East Avenue",
    "targetCompressionRatio": 35,
    "id": 4562,
    "longitude": -77.543775
  },
  {
    "dateTime": 1675533259228,
    "videoStreamUrl": "https://s52.nysdot.skyvdn.com:443/rtplive/R10_314/playlist.m3u8",
    "latitude": 40.826437,
    "referrer": null,
    "locationId": "NY_LI",
    "previewImageUrl": "https://511ny.org/map/Cctv/1970--1",
    "name": "495 Eastbound at Exits 65-66 Rest Area (Fixed)",
    "targetCompressionRatio": 35,
    "id": 4763,
    "longitude": -72.950239
  },
  {
    "dateTime": 1675533259228,
    "videoStreamUrl": "https://s51.nysdot.skyvdn.com:443/rtplive/R10_305/playlist.m3u8",
    "latitude": 40.8089,
    "referrer": null,
    "locationId": "NY_LI",
    "previewImageUrl": "https://511ny.org/map/Cctv/5848--1",
    "name": "495 Eastbound at Nichols Road",
    "targetCompressionRatio": 35,
    "id": 5334,
    "longitude": -73.160516
  },
  {
    "dateTime": 1675533259228,
    "videoStreamUrl": "https://s53.nysdot.skyvdn.com:443/rtplive/R4_087/playlist.m3u8",
    "latitude": 43.104224,
    "referrer": null,
    "locationId": "NY_RO",
    "previewImageUrl": "https://511ny.org/map/Cctv/8283--41",
    "name": "531 at 259",
    "targetCompressionRatio": 35,
    "id": 4563,
    "longitude": -77.481411
  },
  {
    "dateTime": 1704113852689,
    "videoStreamUrl": "https://s51.nysdot.skyvdn.com:443/rtplive/R8_127/playlist.m3u8",
    "latitude": 40.937432,
    "referrer": null,
    "locationId": "NY_NYC",
    "previewImageUrl": "https://511ny.org/map/Cctv/10323--13",
    "name": "61A at BRP MM 0.05",
    "targetCompressionRatio": 35,
    "id": 16014,
    "longitude": -73.837639
  },
  {
    "dateTime": 1704113852689,
    "videoStreamUrl": "https://s51.nysdot.skyvdn.com:443/rtplive/R8_128/playlist.m3u8",
    "latitude": 40.937422,
    "referrer": null,
    "locationId": "NY_NYC",
    "previewImageUrl": "https://511ny.org/map/Cctv/10325--13",
    "name": "61B at BRP MM 0.05",
    "targetCompressionRatio": 35,
    "id": 16015,
    "longitude": -73.837649
  },
  {
    "dateTime": 1675533259228,
    "videoStreamUrl": "https://s51.nysdot.skyvdn.com:443/rtplive/R11_124/playlist.m3u8",
    "latitude": 40.71676,
    "referrer": null,
    "locationId": "NY_NYC",
    "previewImageUrl": "https://511ny.org/map/Cctv/5824--36",
    "name": "907 at 76 Road",
    "targetCompressionRatio": 35,
    "id": 5146,
    "longitude": -73.830245
  },
  {
    "dateTime": 1675533259228,
    "videoStreamUrl": "https://s51.nysdot.skyvdn.com:443/rtplive/R11_001/playlist.m3u8",
    "latitude": 40.834406,
    "referrer": null,
    "locationId": "NY_NYC",
    "previewImageUrl": "https://511ny.org/map/Cctv/5781--36",
    "name": "907H Southbound East 174th Street",
    "targetCompressionRatio": 35,
    "id": 4901,
    "longitude": -73.874177
  },
  {
    "dateTime": 1675533259228,
    "videoStreamUrl": "https://s51.nysdot.skyvdn.com:443/rtplive/R11_246/playlist.m3u8",
    "latitude": 40.770163,
    "referrer": null,
    "locationId": "NY_NYC",
    "previewImageUrl": "https://511ny.org/map/Cctv/8254--36",
    "name": "907M at 102 Street",
    "targetCompressionRatio": 35,
    "id": 5118,
    "longitude": -73.867833
  },
  {
    "dateTime": 1675533259228,
    "videoStreamUrl": "https://s53.nysdot.skyvdn.com:443/rtplive/R11_116/playlist.m3u8",
    "latitude": 40.766045,
    "referrer": null,
    "locationId": "NY_NYC",
    "previewImageUrl": "https://511ny.org/map/Cctv/2320--36",
    "name": "907M at 27th Avenue",
    "targetCompressionRatio": 35,
    "id": 4972,
    "longitude": -73.862652
  },
  {
    "dateTime": 1675533259228,
    "videoStreamUrl": "https://s53.nysdot.skyvdn.com:443/rtplive/R11_227/playlist.m3u8",
    "latitude": 40.770857,
    "referrer": null,
    "locationId": "NY_NYC",
    "previewImageUrl": "https://511ny.org/map/Cctv/6775--36",
    "name": "907M at 31 St",
    "targetCompressionRatio": 35,
    "id": 4964,
    "longitude": -73.917756
  },
  {
    "dateTime": 1675533259228,
    "videoStreamUrl": "https://s53.nysdot.skyvdn.com:443/rtplive/R11_111/playlist.m3u8",
    "latitude": 40.769622,
    "referrer": null,
    "locationId": "NY_NYC",
    "previewImageUrl": "https://511ny.org/map/Cctv/2315--36",
    "name": "907M at 37th Street",
    "targetCompressionRatio": 35,
    "id": 4968,
    "longitude": -73.912778
  },
  {
    "dateTime": 1675533259228,
    "videoStreamUrl": "https://s51.nysdot.skyvdn.com:443/rtplive/R11_249/playlist.m3u8",
    "latitude": 40.76854,
    "referrer": null,
    "locationId": "NY_NYC",
    "previewImageUrl": "https://511ny.org/map/Cctv/8263--36",
    "name": "907M at 44th Street",
    "targetCompressionRatio": 35,
    "id": 4895,
    "longitude": -73.906842
  },
  {
    "dateTime": 1675533259228,
    "videoStreamUrl": "https://s53.nysdot.skyvdn.com:443/rtplive/R11_112/playlist.m3u8",
    "latitude": 40.768244,
    "referrer": null,
    "locationId": "NY_NYC",
    "previewImageUrl": "https://511ny.org/map/Cctv/2316--36",
    "name": "907M at 46th Street",
    "targetCompressionRatio": 35,
    "id": 4969,
    "longitude": -73.904885
  },
  {
    "dateTime": 1675533259228,
    "videoStreamUrl": "https://s53.nysdot.skyvdn.com:443/rtplive/R11_120/playlist.m3u8",
    "latitude": 40.743847,
    "referrer": null,
    "locationId": "NY_NYC",
    "previewImageUrl": "https://511ny.org/map/Cctv/2324--36",
    "name": "907M at 55th Avenue",
    "targetCompressionRatio": 35,
    "id": 4975,
    "longitude": -73.846899
  },
  {
    "dateTime": 1675533259228,
    "videoStreamUrl": "https://s51.nysdot.skyvdn.com:443/rtplive/R11_121/playlist.m3u8",
    "latitude": 40.734074,
    "referrer": null,
    "locationId": "NY_NYC",
    "previewImageUrl": "https://511ny.org/map/Cctv/5821--36",
    "name": "907M at 64th Avenue",
    "targetCompressionRatio": 35,
    "id": 4976,
    "longitude": -73.844484
  },
  {
    "dateTime": 1675533259228,
    "videoStreamUrl": "https://s51.nysdot.skyvdn.com:443/rtplive/R11_122/playlist.m3u8",
    "latitude": 40.726696,
    "referrer": null,
    "locationId": "NY_NYC",
    "previewImageUrl": "https://511ny.org/map/Cctv/5822--36",
    "name": "907M at 69th Road",
    "targetCompressionRatio": 35,
    "id": 4977,
    "longitude": -73.837873
  },
  {
    "dateTime": 1675533259228,
    "videoStreamUrl": "https://s51.nysdot.skyvdn.com:443/rtplive/R11_123/playlist.m3u8",
    "latitude": 40.721099,
    "referrer": null,
    "locationId": "NY_NYC",
    "previewImageUrl": "https://511ny.org/map/Cctv/5823--36",
    "name": "907M at 72nd Road",
    "targetCompressionRatio": 35,
    "id": 4978,
    "longitude": -73.835199
  },
  {
    "dateTime": 1675533259228,
    "videoStreamUrl": "https://s53.nysdot.skyvdn.com:443/rtplive/R11_113/playlist.m3u8",
    "latitude": 40.766605,
    "referrer": null,
    "locationId": "NY_NYC",
    "previewImageUrl": "https://511ny.org/map/Cctv/2317--36",
    "name": "907M at 72nd Street",
    "targetCompressionRatio": 35,
    "id": 4970,
    "longitude": -73.896537
  },
  {
    "dateTime": 1675533259228,
    "videoStreamUrl": "https://s53.nysdot.skyvdn.com:443/rtplive/R11_114/playlist.m3u8",
    "latitude": 40.765845,
    "referrer": null,
    "locationId": "NY_NYC",
    "previewImageUrl": "https://511ny.org/map/Cctv/2318--36",
    "name": "907M at 75th Street",
    "targetCompressionRatio": 35,
    "id": 4971,
    "longitude": -73.893584
  },
  {
    "dateTime": 1675533259228,
    "videoStreamUrl": "https://s52.nysdot.skyvdn.com:443/rtplive/R11_223/playlist.m3u8",
    "latitude": 40.768487,
    "referrer": null,
    "locationId": "NY_NYC",
    "previewImageUrl": "https://511ny.org/map/Cctv/6764--36",
    "name": "907M at 86 St",
    "targetCompressionRatio": 35,
    "id": 5420,
    "longitude": -73.882627
  },
  {
    "dateTime": 1675533259228,
    "videoStreamUrl": "https://s51.nysdot.skyvdn.com:443/rtplive/R11_244/playlist.m3u8",
    "latitude": 40.771696,
    "referrer": null,
    "locationId": "NY_NYC",
    "previewImageUrl": "https://511ny.org/map/Cctv/8252--36",
    "name": "907M at 94 Street",
    "targetCompressionRatio": 35,
    "id": 5116,
    "longitude": -73.875917
  },
  {
    "dateTime": 1675533259228,
    "videoStreamUrl": "https://s53.nysdot.skyvdn.com:443/rtplive/R11_117/playlist.m3u8",
    "latitude": 40.759784,
    "referrer": null,
    "locationId": "NY_NYC",
    "previewImageUrl": "https://511ny.org/map/Cctv/2321--36",
    "name": "907M at Ditmars Blvd",
    "targetCompressionRatio": 35,
    "id": 4973,
    "longitude": -73.856583
  },
  {
    "dateTime": 1675533259228,
    "videoStreamUrl": "https://s53.nysdot.skyvdn.com:443/rtplive/R11_294/playlist.m3u8",
    "latitude": 40.716036,
    "referrer": null,
    "locationId": "NY_NYC",
    "previewImageUrl": "https://511ny.org/map/Cctv/9993--36",
    "name": "907M at I-678 and VWE",
    "targetCompressionRatio": 35,
    "id": 4966,
    "longitude": -73.825036
  },
  {
    "dateTime": 1675533259228,
    "videoStreamUrl": "https://s53.nysdot.skyvdn.com:443/rtplive/R11_118/playlist.m3u8",
    "latitude": 40.754343,
    "referrer": null,
    "locationId": "NY_NYC",
    "previewImageUrl": "https://511ny.org/map/Cctv/2322--36",
    "name": "907M at Roosevelt Avenue",
    "targetCompressionRatio": 35,
    "id": 4974,
    "longitude": -73.852871
  },
  {
    "dateTime": 1682775757606,
    "videoStreamUrl": "https://s53.nysdot.skyvdn.com:443/rtplive/R11_289/playlist.m3u8",
    "latitude": 40.716342,
    "referrer": null,
    "locationId": "NY_NYC",
    "previewImageUrl": "https://511ny.org/map/Cctv/9986--36",
    "name": "907M at Union Turnpike",
    "targetCompressionRatio": 35,
    "id": 8447,
    "longitude": -73.819571
  },
  {
    "dateTime": 1675533259228,
    "videoStreamUrl": "https://s51.nysdot.skyvdn.com:443/rtplive/R11_245/playlist.m3u8",
    "latitude": 40.766473,
    "referrer": null,
    "locationId": "NY_NYC",
    "previewImageUrl": "https://511ny.org/map/Cctv/8253--36",
    "name": "907M at W and B I-278 and BQE Ramp",
    "targetCompressionRatio": 35,
    "id": 5117,
    "longitude": -73.890716
  },
  {
    "dateTime": 1682775757606,
    "videoStreamUrl": "https://s53.nysdot.skyvdn.com:443/rtplive/R11_290/playlist.m3u8",
    "latitude": 40.716796,
    "referrer": null,
    "locationId": "NY_NYC",
    "previewImageUrl": "https://511ny.org/map/Cctv/9987--36",
    "name": "907M ramp to Queens Blvd",
    "targetCompressionRatio": 35,
    "id": 8448,
    "longitude": -73.82093
  },
  {
    "dateTime": 1675533259228,
    "videoStreamUrl": "https://s53.nysdot.skyvdn.com:443/rtplive/R11_293/playlist.m3u8",
    "latitude": 40.71614,
    "referrer": null,
    "locationId": "NY_NYC",
    "previewImageUrl": "https://511ny.org/map/Cctv/9994--36",
    "name": "907M2 at JRP",
    "targetCompressionRatio": 35,
    "id": 4967,
    "longitude": -73.827624
  },
  {
    "dateTime": 1675533259228,
    "videoStreamUrl": "https://s51.nysdot.skyvdn.com:443/rtplive/R11_038/playlist.m3u8",
    "latitude": 40.868398,
    "referrer": null,
    "locationId": "NY_NYC",
    "previewImageUrl": "https://511ny.org/map/Cctv/5798--36",
    "name": "908A at Bartow Avenue",
    "targetCompressionRatio": 35,
    "id": 4999,
    "longitude": -73.821943
  },
  {
    "dateTime": 1675533259228,
    "videoStreamUrl": "https://s51.nysdot.skyvdn.com:443/rtplive/R11_036/playlist.m3u8",
    "latitude": 40.857541,
    "referrer": null,
    "locationId": "NY_NYC",
    "previewImageUrl": "https://511ny.org/map/Cctv/5796--36",
    "name": "908A at Brx. Pelham Pkwy",
    "targetCompressionRatio": 35,
    "id": 4997,
    "longitude": -73.831005
  },
  {
    "dateTime": 1675533259228,
    "videoStreamUrl": "https://s51.nysdot.skyvdn.com:443/rtplive/R11_037/playlist.m3u8",
    "latitude": 40.860857,
    "referrer": null,
    "locationId": "NY_NYC",
    "previewImageUrl": "https://511ny.org/map/Cctv/5797--36",
    "name": "908A at New England Thruway and Overpass",
    "targetCompressionRatio": 35,
    "id": 4998,
    "longitude": -73.828593
  },
  {
    "dateTime": 1675533259228,
    "videoStreamUrl": "https://s51.nysdot.skyvdn.com:443/rtplive/R11_034/playlist.m3u8",
    "latitude": 40.834888,
    "referrer": null,
    "locationId": "NY_NYC",
    "previewImageUrl": "https://511ny.org/map/Cctv/5794--36",
    "name": "908A at Waterbury Avenue",
    "targetCompressionRatio": 35,
    "id": 4995,
    "longitude": -73.838269
  },
  {
    "dateTime": 1675533259228,
    "videoStreamUrl": "https://s51.nysdot.skyvdn.com:443/rtplive/R11_035/playlist.m3u8",
    "latitude": 40.851993,
    "referrer": null,
    "locationId": "NY_NYC",
    "previewImageUrl": "https://511ny.org/map/Cctv/5795--36",
    "name": "908A at Wilkenson Avenue",
    "targetCompressionRatio": 35,
    "id": 4996,
    "longitude": -73.835938
  },
  {
    "dateTime": 1675533259228,
    "videoStreamUrl": "https://s52.nysdot.skyvdn.com:443/rtplive/R11_191/playlist.m3u8",
    "latitude": 40.555185,
    "referrer": null,
    "locationId": "NY_NYC",
    "previewImageUrl": "https://511ny.org/map/Cctv/5941--36",
    "name": "909C at Annadale Road",
    "targetCompressionRatio": 35,
    "id": 5017,
    "longitude": -74.176196
  },
  {
    "dateTime": 1675533259228,
    "videoStreamUrl": "https://s51.nysdot.skyvdn.com:443/rtplive/R11_189/playlist.m3u8",
    "latitude": 40.525433,
    "referrer": null,
    "locationId": "NY_NYC",
    "previewImageUrl": "https://511ny.org/map/Cctv/5909--36",
    "name": "909C at Tyrellan Avenue",
    "targetCompressionRatio": 35,
    "id": 5015,
    "longitude": -74.230189
  },
  {
    "dateTime": 1675533259228,
    "videoStreamUrl": "https://s51.nysdot.skyvdn.com:443/rtplive/R11_190/playlist.m3u8",
    "latitude": 40.52806,
    "referrer": null,
    "locationId": "NY_NYC",
    "previewImageUrl": "https://511ny.org/map/Cctv/5910--36",
    "name": "909C Bloomingdale Road",
    "targetCompressionRatio": 35,
    "id": 5016,
    "longitude": -74.216696
  },
  {
    "dateTime": 1694196818183,
    "videoStreamUrl": "https://s51.nysdot.skyvdn.com:443/rtplive/R8_CAMHRP4081/playlist.m3u8",
    "latitude": 41.023311,
    "referrer": null,
    "locationId": "NY_RU",
    "previewImageUrl": "https://511ny.org/map/Cctv/10302--43",
    "name": "At Exit 17 on Lincoln Avenue",
    "targetCompressionRatio": 35,
    "id": 13427,
    "longitude": -73.695022
  },
  {
    "dateTime": 1675533259228,
    "videoStreamUrl": "https://s53.nysdot.skyvdn.com:443/rtplive/R8_112/playlist.m3u8",
    "latitude": 41.441649,
    "referrer": null,
    "locationId": "NY_RU",
    "previewImageUrl": "https://511ny.org/map/Cctv/10005--43",
    "name": "At Exit 36B (Union Ave)",
    "targetCompressionRatio": 35,
    "id": 5425,
    "longitude": -74.361725
  },
  {
    "dateTime": 1675533259228,
    "videoStreamUrl": "https://s53.nysdot.skyvdn.com:443/rtplive/R8_110/playlist.m3u8",
    "latitude": 41.514808,
    "referrer": null,
    "locationId": "NY_RU",
    "previewImageUrl": "https://511ny.org/map/Cctv/9997--43",
    "name": "At Exit 36B (Union Ave)",
    "targetCompressionRatio": 35,
    "id": 5429,
    "longitude": -74.073132
  },
  {
    "dateTime": 1675533259228,
    "videoStreamUrl": "https://s53.nysdot.skyvdn.com:443/rtplive/R8_024/playlist.m3u8",
    "latitude": 40.937422,
    "referrer": null,
    "locationId": "NY_NYC",
    "previewImageUrl": "https://511ny.org/map/Cctv/2161--13",
    "name": "At HUB-14 A",
    "targetCompressionRatio": 35,
    "id": 4181,
    "longitude": -73.837649
  },
  {
    "dateTime": 1704113852689,
    "videoStreamUrl": "https://s51.nysdot.skyvdn.com:443/rtplive/R8_121/playlist.m3u8",
    "latitude": 41.056016,
    "referrer": null,
    "locationId": "NY_NYC",
    "previewImageUrl": "https://511ny.org/map/Cctv/10310--13",
    "name": "At Interstate I-287 MM 9.17",
    "targetCompressionRatio": 35,
    "id": 16012,
    "longitude": -73.810049
  },
  {
    "dateTime": 1675533259228,
    "videoStreamUrl": "https://s58.nysdot.skyvdn.com:443/rtplive/TA_063/playlist.m3u8",
    "latitude": 42.39744,
    "referrer": null,
    "locationId": "NY_RU",
    "previewImageUrl": "https://511ny.org/map/Cctv/9819--43",
    "name": "Berkshire Connector at Canaan Toll Barrier",
    "targetCompressionRatio": 35,
    "id": 4333,
    "longitude": -73.5048
  },
  {
    "dateTime": 1675533259228,
    "videoStreamUrl": "https://s58.nysdot.skyvdn.com:443/rtplive/TA_061/playlist.m3u8",
    "latitude": 42.48272,
    "referrer": null,
    "locationId": "NY_RU",
    "previewImageUrl": "https://511ny.org/map/Cctv/9817--43",
    "name": "Berkshire Connector at Interchange B1 (Albany and Hudson and Rensselaer)",
    "targetCompressionRatio": 35,
    "id": 4332,
    "longitude": -73.66856
  },
  {
    "dateTime": 1675533259228,
    "videoStreamUrl": "https://s58.nysdot.skyvdn.com:443/rtplive/TA_062/playlist.m3u8",
    "latitude": 42.41988,
    "referrer": null,
    "locationId": "NY_RU",
    "previewImageUrl": "https://511ny.org/map/Cctv/9818--43",
    "name": "Berkshire Connector at Interchange B2 (Taconic State Parkway)",
    "targetCompressionRatio": 35,
    "id": 4220,
    "longitude": -73.54852
  },
  {
    "dateTime": 1675533259228,
    "videoStreamUrl": "https://s58.nysdot.skyvdn.com:443/rtplive/TA_064/playlist.m3u8",
    "latitude": 42.35664,
    "referrer": null,
    "locationId": "NY_RU",
    "previewImageUrl": "https://511ny.org/map/Cctv/9820--43",
    "name": "Berkshire Connector at Interchange B3 (Austerlitz and New Lebanon)",
    "targetCompressionRatio": 35,
    "id": 4336,
    "longitude": -73.42631
  },
  {
    "dateTime": 1675533259228,
    "videoStreamUrl": "https://s53.nysdot.skyvdn.com:443/rtplive/R4_289/playlist.m3u8",
    "latitude": 43.156499,
    "referrer": null,
    "locationId": "NY_RO",
    "previewImageUrl": "https://511ny.org/map/Cctv/5026--41",
    "name": "Broad St at Allen St",
    "targetCompressionRatio": 35,
    "id": 4476,
    "longitude": -77.624129
  },
  {
    "dateTime": 1675533259228,
    "videoStreamUrl": "https://s52.nysdot.skyvdn.com:443/rtplive/R4_211/playlist.m3u8",
    "latitude": 43.158133,
    "referrer": null,
    "locationId": "NY_RO",
    "previewImageUrl": "https://511ny.org/map/Cctv/8306--41",
    "name": "Broad St at Brown St and Campbell and I-490",
    "targetCompressionRatio": 35,
    "id": 4547,
    "longitude": -77.62522
  },
  {
    "dateTime": 1675533259228,
    "videoStreamUrl": "https://s51.nysdot.skyvdn.com:443/rtplive/R4_201/playlist.m3u8",
    "latitude": 43.155226,
    "referrer": null,
    "locationId": "NY_RO",
    "previewImageUrl": "https://511ny.org/map/Cctv/5860--41",
    "name": "Broad St at Chestnut St",
    "targetCompressionRatio": 35,
    "id": 4508,
    "longitude": -77.603193
  },
  {
    "dateTime": 1675533259228,
    "videoStreamUrl": "https://s51.nysdot.skyvdn.com:443/rtplive/R11_250/playlist.m3u8",
    "latitude": 40.853988,
    "referrer": null,
    "locationId": "NY_NYC",
    "previewImageUrl": "https://511ny.org/map/Cctv/8264--36",
    "name": "Bronx River Parkway at Boston Road Road",
    "targetCompressionRatio": 35,
    "id": 4900,
    "longitude": -73.871746
  },
  {
    "dateTime": 1675533259228,
    "videoStreamUrl": "https://s51.nysdot.skyvdn.com:443/rtplive/R11_238/playlist.m3u8",
    "latitude": 40.879264,
    "referrer": null,
    "locationId": "NY_NYC",
    "previewImageUrl": "https://511ny.org/map/Cctv/8229--36",
    "name": "Bronx River Parkway at Gun Hill Road",
    "targetCompressionRatio": 35,
    "id": 4897,
    "longitude": -73.869831
  },
  {
    "dateTime": 1675533259228,
    "videoStreamUrl": "https://s53.nysdot.skyvdn.com:443/rtplive/R11_240/playlist.m3u8",
    "latitude": 40.863321,
    "referrer": null,
    "locationId": "NY_NYC",
    "previewImageUrl": "https://511ny.org/map/Cctv/8231--36",
    "name": "Bronx River Parkway at Mace Avenue",
    "targetCompressionRatio": 35,
    "id": 4899,
    "longitude": -73.871657
  },
  {
    "dateTime": 1675533259228,
    "videoStreamUrl": "https://s53.nysdot.skyvdn.com:443/rtplive/R11_239/playlist.m3u8",
    "latitude": 40.858786,
    "referrer": null,
    "locationId": "NY_NYC",
    "previewImageUrl": "https://511ny.org/map/Cctv/8230--36",
    "name": "Bronx River Parkway at Pelham Parkway",
    "targetCompressionRatio": 35,
    "id": 4898,
    "longitude": -73.872662
  },
  {
    "dateTime": 1675533259228,
    "videoStreamUrl": "https://s51.nysdot.skyvdn.com:443/rtplive/R11_236/playlist.m3u8",
    "latitude": 40.849031,
    "referrer": null,
    "locationId": "NY_NYC",
    "previewImageUrl": "https://511ny.org/map/Cctv/8221--36",
    "name": "Bronx River Parkway at Sagamore St",
    "targetCompressionRatio": 35,
    "id": 4896,
    "longitude": -73.871417
  },
  {
    "dateTime": 1675533259228,
    "videoStreamUrl": "https://s52.nysdot.skyvdn.com:443/rtplive/R4_276/playlist.m3u8",
    "latitude": 43.068345,
    "referrer": null,
    "locationId": "NY_RO",
    "previewImageUrl": "https://511ny.org/map/Cctv/5053--41",
    "name": "Calkins Rd at Hylan Dr",
    "targetCompressionRatio": 35,
    "id": 5131,
    "longitude": -77.627536
  },
  {
    "dateTime": 1675533259228,
    "videoStreamUrl": "https://s52.nysdot.skyvdn.com:443/rtplive/R6_013/playlist.m3u8",
    "latitude": 42.153833,
    "referrer": null,
    "locationId": "NY_RU",
    "previewImageUrl": "https://511ny.org/map/Cctv/6012--4",
    "name": "Canada Rd at I-99 Southbound",
    "targetCompressionRatio": 35,
    "id": 4290,
    "longitude": -77.099381
  },
  {
    "dateTime": 1675533259228,
    "videoStreamUrl": "https://s53.nysdot.skyvdn.com:443/rtplive/R10_174/playlist.m3u8",
    "latitude": 40.762082,
    "referrer": null,
    "locationId": "NY_LI",
    "previewImageUrl": "https://511ny.org/map/Cctv/2227--1",
    "name": "CIP at Northern Blvd.",
    "targetCompressionRatio": 35,
    "id": 4938,
    "longitude": -73.757192
  },
  {
    "dateTime": 1675533259228,
    "videoStreamUrl": "https://s53.nysdot.skyvdn.com:443/rtplive/R10_175/playlist.m3u8",
    "latitude": 40.749839,
    "referrer": null,
    "locationId": "NY_LI",
    "previewImageUrl": "https://511ny.org/map/Cctv/2228--1",
    "name": "CIP South of West Alley Rd.",
    "targetCompressionRatio": 35,
    "id": 4939,
    "longitude": -73.740851
  },
  {
    "dateTime": 1682775757606,
    "videoStreamUrl": "https://s53.nysdot.skyvdn.com:443/rtplive/R6_031/playlist.m3u8",
    "latitude": 42.090502,
    "referrer": null,
    "locationId": "NY_RU",
    "previewImageUrl": "https://511ny.org/map/Cctv/6761--4",
    "name": "Clemens Center Pkwy (NY 14) at Church St (NY 352)",
    "targetCompressionRatio": 35,
    "id": 8415,
    "longitude": -76.805569
  },
  {
    "dateTime": 1675533259228,
    "videoStreamUrl": "https://s53.nysdot.skyvdn.com:443/rtplive/R4_223/playlist.m3u8",
    "latitude": 43.17534,
    "referrer": null,
    "locationId": "NY_RO",
    "previewImageUrl": "https://511ny.org/map/Cctv/5000--41",
    "name": "Clifford Ave at Hudson Ave",
    "targetCompressionRatio": 35,
    "id": 4457,
    "longitude": -77.598783
  },
  {
    "dateTime": 1675533259228,
    "videoStreamUrl": "https://s53.nysdot.skyvdn.com:443/rtplive/R4_227/playlist.m3u8",
    "latitude": 43.15408,
    "referrer": null,
    "locationId": "NY_RO",
    "previewImageUrl": "https://511ny.org/map/Cctv/5004--41",
    "name": "Clinton Ave at Court St",
    "targetCompressionRatio": 35,
    "id": 4459,
    "longitude": -77.605079
  },
  {
    "dateTime": 1675533259228,
    "videoStreamUrl": "https://s51.nysdot.skyvdn.com:443/rtplive/R4_299/playlist.m3u8",
    "latitude": 43.131711,
    "referrer": null,
    "locationId": "NY_RO",
    "previewImageUrl": "https://511ny.org/map/Cctv/5898--41",
    "name": "Clinton Ave at Highland Ave",
    "targetCompressionRatio": 35,
    "id": 4539,
    "longitude": -77.590216
  },
  {
    "dateTime": 1675533259228,
    "videoStreamUrl": "https://s53.nysdot.skyvdn.com:443/rtplive/R4_256/playlist.m3u8",
    "latitude": 43.186462,
    "referrer": null,
    "locationId": "NY_RO",
    "previewImageUrl": "https://511ny.org/map/Cctv/5013--41",
    "name": "Clinton Ave at Norton St",
    "targetCompressionRatio": 35,
    "id": 4464,
    "longitude": -77.613773
  },
  {
    "dateTime": 1675533259228,
    "videoStreamUrl": "https://s51.nysdot.skyvdn.com:443/rtplive/R4_266/playlist.m3u8",
    "latitude": 43.170176,
    "referrer": null,
    "locationId": "NY_RO",
    "previewImageUrl": "https://511ny.org/map/Cctv/5885--41",
    "name": "Clinton Ave at Upper Falls Blvd",
    "targetCompressionRatio": 35,
    "id": 4525,
    "longitude": -77.611793
  },
  {
    "dateTime": 1675533259228,
    "videoStreamUrl": "https://s51.nysdot.skyvdn.com:443/rtplive/R4_268/playlist.m3u8",
    "latitude": 43.115314,
    "referrer": null,
    "locationId": "NY_RO",
    "previewImageUrl": "https://511ny.org/map/Cctv/5887--41",
    "name": "Clinton Ave at Westfall Rd",
    "targetCompressionRatio": 35,
    "id": 4527,
    "longitude": -77.59697
  },
  {
    "dateTime": 1675533259228,
    "videoStreamUrl": "https://s53.nysdot.skyvdn.com:443/rtplive/R4_283/playlist.m3u8",
    "latitude": 43.115351,
    "referrer": null,
    "locationId": "NY_RO",
    "previewImageUrl": "https://511ny.org/map/Cctv/5020--41",
    "name": "Clinton Ave at Westfall Rd - 2",
    "targetCompressionRatio": 35,
    "id": 4470,
    "longitude": -77.597022
  },
  {
    "dateTime": 1675533259228,
    "videoStreamUrl": "https://s52.nysdot.skyvdn.com:443/rtplive/R6_015/playlist.m3u8",
    "latitude": 42.154088,
    "referrer": null,
    "locationId": "NY_RU",
    "previewImageUrl": "https://511ny.org/map/Cctv/6014--4",
    "name": "CR 35 at CR 64",
    "targetCompressionRatio": 35,
    "id": 4279,
    "longitude": -76.877472
  },
  {
    "dateTime": 1675533259228,
    "videoStreamUrl": "https://s53.nysdot.skyvdn.com:443/rtplive/R8_051/playlist.m3u8",
    "latitude": 40.933814,
    "referrer": null,
    "locationId": "NY_NYC",
    "previewImageUrl": "https://511ny.org/map/Cctv/2168--13",
    "name": "Cross County Parkway East of Exit 3 (Midland Ave.)",
    "targetCompressionRatio": 35,
    "id": 4499,
    "longitude": -73.862818
  },
  {
    "dateTime": 1675533259228,
    "videoStreamUrl": "https://s53.nysdot.skyvdn.com:443/rtplive/R4_255/playlist.m3u8",
    "latitude": 43.176365,
    "referrer": null,
    "locationId": "NY_RO",
    "previewImageUrl": "https://511ny.org/map/Cctv/5012--41",
    "name": "Culver Rd at Clifford Ave and Empire Blvd",
    "targetCompressionRatio": 35,
    "id": 5129,
    "longitude": -77.557403
  },
  {
    "dateTime": 1675533259228,
    "videoStreamUrl": "https://s52.nysdot.skyvdn.com:443/rtplive/R4_215/playlist.m3u8",
    "latitude": 43.141375,
    "referrer": null,
    "locationId": "NY_RO",
    "previewImageUrl": "https://511ny.org/map/Cctv/5032--41",
    "name": "Culver Rd at Norris St and Hisdale St",
    "targetCompressionRatio": 35,
    "id": 4478,
    "longitude": -77.57622
  },
  {
    "dateTime": 1675533259228,
    "videoStreamUrl": "https://s53.nysdot.skyvdn.com:443/rtplive/R4_286/playlist.m3u8",
    "latitude": 43.188151,
    "referrer": null,
    "locationId": "NY_RO",
    "previewImageUrl": "https://511ny.org/map/Cctv/5023--41",
    "name": "Culver Rd at Norton St",
    "targetCompressionRatio": 35,
    "id": 4473,
    "longitude": -77.561
  },
  {
    "dateTime": 1675533259228,
    "videoStreamUrl": "https://s53.nysdot.skyvdn.com:443/rtplive/R4_228/playlist.m3u8",
    "latitude": 43.180934,
    "referrer": null,
    "locationId": "NY_RO",
    "previewImageUrl": "https://511ny.org/map/Cctv/5005--41",
    "name": "Dewey Ave at Driving Park Ave",
    "targetCompressionRatio": 35,
    "id": 4460,
    "longitude": -77.639457
  },
  {
    "dateTime": 1675533259228,
    "videoStreamUrl": "https://s52.nysdot.skyvdn.com:443/rtplive/R4_218/playlist.m3u8",
    "latitude": 43.17361,
    "referrer": null,
    "locationId": "NY_RO",
    "previewImageUrl": "https://511ny.org/map/Cctv/5035--41",
    "name": "Dewey Ave at Emerson St",
    "targetCompressionRatio": 35,
    "id": 4480,
    "longitude": -77.639211
  },
  {
    "dateTime": 1675533259228,
    "videoStreamUrl": "https://s52.nysdot.skyvdn.com:443/rtplive/R4_214/playlist.m3u8",
    "latitude": 43.193829,
    "referrer": null,
    "locationId": "NY_RO",
    "previewImageUrl": "https://511ny.org/map/Cctv/5031--41",
    "name": "Dewey Ave at Ridgeway Ave",
    "targetCompressionRatio": 35,
    "id": 4477,
    "longitude": -77.638881
  },
  {
    "dateTime": 1675533259228,
    "videoStreamUrl": "https://s53.nysdot.skyvdn.com:443/rtplive/R4_252/playlist.m3u8",
    "latitude": 43.22322,
    "referrer": null,
    "locationId": "NY_RO",
    "previewImageUrl": "https://511ny.org/map/Cctv/5009--41",
    "name": "Dewey Ave at Stone Rd",
    "targetCompressionRatio": 35,
    "id": 4463,
    "longitude": -77.641363
  },
  {
    "dateTime": 1675533259228,
    "videoStreamUrl": "https://s53.nysdot.skyvdn.com:443/rtplive/R11_288/playlist.m3u8",
    "latitude": 40.716521,
    "referrer": null,
    "locationId": "NY_NYC",
    "previewImageUrl": "https://511ny.org/map/Cctv/9985--36",
    "name": "E and B 907M at JRP",
    "targetCompressionRatio": 35,
    "id": 4965,
    "longitude": -73.827549
  },
  {
    "dateTime": 1675533259228,
    "videoStreamUrl": "https://s53.nysdot.skyvdn.com:443/rtplive/R4_222/playlist.m3u8",
    "latitude": 43.114664,
    "referrer": null,
    "locationId": "NY_RO",
    "previewImageUrl": "https://511ny.org/map/Cctv/8310--41",
    "name": "E. Henrietta Rd at Westfall Rd",
    "targetCompressionRatio": 35,
    "id": 4551,
    "longitude": -77.616193
  },
  {
    "dateTime": 1675533259228,
    "videoStreamUrl": "https://s52.nysdot.skyvdn.com:443/rtplive/R4_217/playlist.m3u8",
    "latitude": 43.155062,
    "referrer": null,
    "locationId": "NY_RO",
    "previewImageUrl": "https://511ny.org/map/Cctv/8307--41",
    "name": "East Ave at Alexander St",
    "targetCompressionRatio": 35,
    "id": 4548,
    "longitude": -77.594633
  },
  {
    "dateTime": 1675533259228,
    "videoStreamUrl": "https://s53.nysdot.skyvdn.com:443/rtplive/R4_284/playlist.m3u8",
    "latitude": 43.149504,
    "referrer": null,
    "locationId": "NY_RO",
    "previewImageUrl": "https://511ny.org/map/Cctv/5021--41",
    "name": "East Ave at Culver Rd",
    "targetCompressionRatio": 35,
    "id": 4471,
    "longitude": -77.571725
  },
  {
    "dateTime": 1675533259228,
    "videoStreamUrl": "https://s53.nysdot.skyvdn.com:443/rtplive/R4_288/playlist.m3u8",
    "latitude": 43.116813,
    "referrer": null,
    "locationId": "NY_RO",
    "previewImageUrl": "https://511ny.org/map/Cctv/5025--41",
    "name": "East Henrietta Rd at South Ave",
    "targetCompressionRatio": 35,
    "id": 4475,
    "longitude": -77.616854
  },
  {
    "dateTime": 1675533259228,
    "videoStreamUrl": "https://s52.nysdot.skyvdn.com:443/rtplive/R4_278/playlist.m3u8",
    "latitude": 43.11469,
    "referrer": null,
    "locationId": "NY_RO",
    "previewImageUrl": "https://511ny.org/map/Cctv/5055--41",
    "name": "East Henrietta Rd at Westfall Rd - 2",
    "targetCompressionRatio": 35,
    "id": 4495,
    "longitude": -77.616251
  },
  {
    "dateTime": 1682775757606,
    "videoStreamUrl": "https://s53.nysdot.skyvdn.com:443/rtplive/R8_115/playlist.m3u8",
    "latitude": 41.540298,
    "referrer": null,
    "locationId": "NY_RU",
    "previewImageUrl": "https://511ny.org/map/Cctv/10211--13",
    "name": "East of Exit 52 to TSP NB",
    "targetCompressionRatio": 35,
    "id": 8416,
    "longitude": -73.763605
  },
  {
    "dateTime": 1675533259228,
    "videoStreamUrl": "https://s51.nysdot.skyvdn.com:443/rtplive/R4_261/playlist.m3u8",
    "latitude": 43.197062,
    "referrer": null,
    "locationId": "NY_RO",
    "previewImageUrl": "https://511ny.org/map/Cctv/5880--41",
    "name": "East Ridge Rd at Carter and Stanton Ln",
    "targetCompressionRatio": 35,
    "id": 4520,
    "longitude": -77.592425
  },
  {
    "dateTime": 1675533259228,
    "videoStreamUrl": "https://s51.nysdot.skyvdn.com:443/rtplive/R4_262/playlist.m3u8",
    "latitude": 43.203422,
    "referrer": null,
    "locationId": "NY_RO",
    "previewImageUrl": "https://511ny.org/map/Cctv/5881--41",
    "name": "East Ridge Rd at Culver Rd",
    "targetCompressionRatio": 35,
    "id": 4521,
    "longitude": -77.561799
  },
  {
    "dateTime": 1675533259228,
    "videoStreamUrl": "https://s51.nysdot.skyvdn.com:443/rtplive/R4_240/playlist.m3u8",
    "latitude": 43.199063,
    "referrer": null,
    "locationId": "NY_RO",
    "previewImageUrl": "https://511ny.org/map/Cctv/5879--41",
    "name": "East Ridge Rd at Goodman St and Kings Hwy",
    "targetCompressionRatio": 35,
    "id": 4519,
    "longitude": -77.577024
  },
  {
    "dateTime": 1675533259228,
    "videoStreamUrl": "https://s53.nysdot.skyvdn.com:443/rtplive/R4_259/playlist.m3u8",
    "latitude": 43.196144,
    "referrer": null,
    "locationId": "NY_RO",
    "previewImageUrl": "https://511ny.org/map/Cctv/5016--41",
    "name": "East Ridge Rd at Hudson Ave",
    "targetCompressionRatio": 35,
    "id": 4467,
    "longitude": -77.600153
  },
  {
    "dateTime": 1675533259228,
    "videoStreamUrl": "https://s53.nysdot.skyvdn.com:443/rtplive/R4_253/playlist.m3u8",
    "latitude": 43.195103,
    "referrer": null,
    "locationId": "NY_RO",
    "previewImageUrl": "https://511ny.org/map/Cctv/5010--41",
    "name": "East Ridge Rd at Seneca Ave",
    "targetCompressionRatio": 35,
    "id": 5127,
    "longitude": -77.608976
  },
  {
    "dateTime": 1675533259228,
    "videoStreamUrl": "https://s51.nysdot.skyvdn.com:443/rtplive/R4_236/playlist.m3u8",
    "latitude": 43.122976,
    "referrer": null,
    "locationId": "NY_RO",
    "previewImageUrl": "https://511ny.org/map/Cctv/5875--41",
    "name": "Elmwood at Kendrick",
    "targetCompressionRatio": 35,
    "id": 4516,
    "longitude": -77.629452
  },
  {
    "dateTime": 1675533259228,
    "videoStreamUrl": "https://s52.nysdot.skyvdn.com:443/rtplive/R4_279/playlist.m3u8",
    "latitude": 43.125785,
    "referrer": null,
    "locationId": "NY_RO",
    "previewImageUrl": "https://511ny.org/map/Cctv/5056--41",
    "name": "Elmwood Ave at Scottsville Rd and Genesee St -2",
    "targetCompressionRatio": 35,
    "id": 4496,
    "longitude": -77.639405
  },
  {
    "dateTime": 1675533259228,
    "videoStreamUrl": "https://s52.nysdot.skyvdn.com:443/rtplive/R4_249/playlist.m3u8",
    "latitude": 43.153084,
    "referrer": null,
    "locationId": "NY_RO",
    "previewImageUrl": "https://511ny.org/map/Cctv/5046--41",
    "name": "Exchange Blvd at Court St",
    "targetCompressionRatio": 35,
    "id": 4489,
    "longitude": -77.611403
  },
  {
    "dateTime": 1675533259228,
    "videoStreamUrl": "https://s52.nysdot.skyvdn.com:443/rtplive/R4_250/playlist.m3u8",
    "latitude": 43.142635,
    "referrer": null,
    "locationId": "NY_RO",
    "previewImageUrl": "https://511ny.org/map/Cctv/5047--41",
    "name": "Ford St at Exchange Blvd",
    "targetCompressionRatio": 35,
    "id": 4490,
    "longitude": -77.616114
  },
  {
    "dateTime": 1675533259228,
    "videoStreamUrl": "https://s58.nysdot.skyvdn.com:443/rtplive/TA_013/playlist.m3u8",
    "latitude": 41.0929,
    "referrer": null,
    "locationId": "NY_NYC",
    "previewImageUrl": "https://511ny.org/map/Cctv/9860--43",
    "name": "Garden State Parkway Connector",
    "targetCompressionRatio": 35,
    "id": 4050,
    "longitude": -74.03941
  },
  {
    "dateTime": 1675533259228,
    "videoStreamUrl": "https://s51.nysdot.skyvdn.com:443/rtplive/R4_237/playlist.m3u8",
    "latitude": 43.131075,
    "referrer": null,
    "locationId": "NY_RO",
    "previewImageUrl": "https://511ny.org/map/Cctv/5876--41",
    "name": "Genesee St at Brooks Ave",
    "targetCompressionRatio": 35,
    "id": 4517,
    "longitude": -77.63603
  },
  {
    "dateTime": 1675533259228,
    "videoStreamUrl": "https://s51.nysdot.skyvdn.com:443/rtplive/R2_047/playlist.m3u8",
    "latitude": 43.073326,
    "referrer": null,
    "locationId": "NY_RU",
    "previewImageUrl": "https://511ny.org/map/Cctv/8204--3",
    "name": "Genesee St at Oxford Rd, New Hartford",
    "targetCompressionRatio": 35,
    "id": 5093,
    "longitude": -75.287674
  },
  {
    "dateTime": 1704113852689,
    "videoStreamUrl": "https://s53.nysdot.skyvdn.com:443/rtplive/R1_086/playlist.m3u8",
    "latitude": 42.8671,
    "referrer": null,
    "locationId": "NY_RU",
    "previewImageUrl": "https://511ny.org/map/Cctv/10340--18",
    "name": "Glenridge Rd EB (914V)",
    "targetCompressionRatio": 35,
    "id": 16018,
    "longitude": -73.9032
  },
  {
    "dateTime": 1704113852689,
    "videoStreamUrl": "https://s53.nysdot.skyvdn.com:443/rtplive/R1_087/playlist.m3u8",
    "latitude": 42.8673,
    "referrer": null,
    "locationId": "NY_RU",
    "previewImageUrl": "https://511ny.org/map/Cctv/10341--18",
    "name": "Glenridge Rd WB (914V)",
    "targetCompressionRatio": 35,
    "id": 16019,
    "longitude": -73.9017
  },
  {
    "dateTime": 1675533259228,
    "videoStreamUrl": "https://s51.nysdot.skyvdn.com:443/rtplive/R4_231/playlist.m3u8",
    "latitude": 43.175853,
    "referrer": null,
    "locationId": "NY_RO",
    "previewImageUrl": "https://511ny.org/map/Cctv/5870--41",
    "name": "Goodman St at Clifford Ave",
    "targetCompressionRatio": 35,
    "id": 4512,
    "longitude": -77.576173
  },
  {
    "dateTime": 1675533259228,
    "videoStreamUrl": "https://s53.nysdot.skyvdn.com:443/rtplive/R4_254/playlist.m3u8",
    "latitude": 43.139815,
    "referrer": null,
    "locationId": "NY_RO",
    "previewImageUrl": "https://511ny.org/map/Cctv/5011--41",
    "name": "Goodman St at Clinton Ave and Henrietta St",
    "targetCompressionRatio": 35,
    "id": 5128,
    "longitude": -77.596089
  },
  {
    "dateTime": 1675533259228,
    "videoStreamUrl": "https://s53.nysdot.skyvdn.com:443/rtplive/R4_230/playlist.m3u8",
    "latitude": 43.187643,
    "referrer": null,
    "locationId": "NY_RO",
    "previewImageUrl": "https://511ny.org/map/Cctv/5007--41",
    "name": "Goodman St at Norton St",
    "targetCompressionRatio": 35,
    "id": 4461,
    "longitude": -77.576353
  },
  {
    "dateTime": 1675533259228,
    "videoStreamUrl": "https://s53.nysdot.skyvdn.com:443/rtplive/R10_055/playlist.m3u8",
    "latitude": 40.733776,
    "referrer": null,
    "locationId": "NY_LI",
    "previewImageUrl": "https://511ny.org/map/Cctv/2188--1",
    "name": "Grand Central Pkwy at Clearview Expwy (I-295) Northbound Exit",
    "targetCompressionRatio": 35,
    "id": 4953,
    "longitude": -73.745578
  },
  {
    "dateTime": 1675533259228,
    "videoStreamUrl": "https://s53.nysdot.skyvdn.com:443/rtplive/R10_056/playlist.m3u8",
    "latitude": 40.746701,
    "referrer": null,
    "locationId": "NY_LI",
    "previewImageUrl": "https://511ny.org/map/Cctv/2189--1",
    "name": "Grand Central Pkwy at Cross Island Pkwy",
    "targetCompressionRatio": 35,
    "id": 4954,
    "longitude": -73.729172
  },
  {
    "dateTime": 1675533259228,
    "videoStreamUrl": "https://s52.nysdot.skyvdn.com:443/rtplive/R6_012/playlist.m3u8",
    "latitude": 42.156043,
    "referrer": null,
    "locationId": "NY_RU",
    "previewImageUrl": "https://511ny.org/map/Cctv/6011--4",
    "name": "Hamilton St at Exit 44 Eastbound",
    "targetCompressionRatio": 35,
    "id": 4303,
    "longitude": -77.09697
  },
  {
    "dateTime": 1675533259228,
    "videoStreamUrl": "https://s51.nysdot.skyvdn.com:443/rtplive/R11_153/playlist.m3u8",
    "latitude": 40.803179,
    "referrer": null,
    "locationId": "NY_NYC",
    "previewImageUrl": "https://511ny.org/map/Cctv/5833--36",
    "name": "Harlem River Drive at 127 Street",
    "targetCompressionRatio": 35,
    "id": 4981,
    "longitude": -73.930639
  },
  {
    "dateTime": 1675533259228,
    "videoStreamUrl": "https://s53.nysdot.skyvdn.com:443/rtplive/R11_291/playlist.m3u8",
    "latitude": 40.807408,
    "referrer": null,
    "locationId": "NY_NYC",
    "previewImageUrl": "https://511ny.org/map/Cctv/9990--36",
    "name": "Harlem River Drive at 130 Street",
    "targetCompressionRatio": 35,
    "id": 4985,
    "longitude": -73.93395
  },
  {
    "dateTime": 1675533259228,
    "videoStreamUrl": "https://s52.nysdot.skyvdn.com:443/rtplive/R11_251/playlist.m3u8",
    "latitude": 40.811714,
    "referrer": null,
    "locationId": "NY_NYC",
    "previewImageUrl": "https://511ny.org/map/Cctv/8269--36",
    "name": "Harlem River Drive at 135 Street",
    "targetCompressionRatio": 35,
    "id": 4984,
    "longitude": -73.934773
  },
  {
    "dateTime": 1675533259228,
    "videoStreamUrl": "https://s52.nysdot.skyvdn.com:443/rtplive/R11_253/playlist.m3u8",
    "latitude": 40.824425,
    "referrer": null,
    "locationId": "NY_NYC",
    "previewImageUrl": "https://511ny.org/map/Cctv/8267--36",
    "name": "Harlem River Drive at 150 Street",
    "targetCompressionRatio": 35,
    "id": 4982,
    "longitude": -73.934541
  },
  {
    "dateTime": 1675533259228,
    "videoStreamUrl": "https://s52.nysdot.skyvdn.com:443/rtplive/R11_252/playlist.m3u8",
    "latitude": 40.837764,
    "referrer": null,
    "locationId": "NY_NYC",
    "previewImageUrl": "https://511ny.org/map/Cctv/8268--36",
    "name": "Harlem River Drive at 164 Street",
    "targetCompressionRatio": 35,
    "id": 4983,
    "longitude": -73.934014
  },
  {
    "dateTime": 1675533259228,
    "videoStreamUrl": "https://s51.nysdot.skyvdn.com:443/rtplive/R11_258/playlist.m3u8",
    "latitude": 40.815134,
    "referrer": null,
    "locationId": "NY_NYC",
    "previewImageUrl": "https://511ny.org/map/Cctv/8323--36",
    "name": "Henry Hudson Pkwy at La Salle Street",
    "targetCompressionRatio": 35,
    "id": 4990,
    "longitude": -73.964335
  },
  {
    "dateTime": 1675533259228,
    "videoStreamUrl": "https://s53.nysdot.skyvdn.com:443/rtplive/R11_296/playlist.m3u8",
    "latitude": 40.799082,
    "referrer": null,
    "locationId": "NY_NYC",
    "previewImageUrl": "https://511ny.org/map/Cctv/10000--36",
    "name": "Henry Hudson Pkwy at W. 100 Street",
    "targetCompressionRatio": 35,
    "id": 4986,
    "longitude": -73.975171
  },
  {
    "dateTime": 1675533259228,
    "videoStreamUrl": "https://s53.nysdot.skyvdn.com:443/rtplive/R11_260/playlist.m3u8",
    "latitude": 40.81154,
    "referrer": null,
    "locationId": "NY_NYC",
    "previewImageUrl": "https://511ny.org/map/Cctv/8326--36",
    "name": "Henry Hudson Pkwy at W. 119 Street",
    "targetCompressionRatio": 35,
    "id": 4992,
    "longitude": -73.966555
  },
  {
    "dateTime": 1694196818183,
    "videoStreamUrl": "https://s53.nysdot.skyvdn.com:443/rtplive/R11_231/playlist.m3u8",
    "latitude": 40.823257,
    "referrer": null,
    "locationId": "NY_NYC",
    "previewImageUrl": "https://511ny.org/map/Cctv/10261--36",
    "name": "Henry Hudson Pkwy at W. 138 Street",
    "targetCompressionRatio": 35,
    "id": 13406,
    "longitude": -73.957141
  },
  {
    "dateTime": 1694196818183,
    "videoStreamUrl": "https://s51.nysdot.skyvdn.com:443/rtplive/R11_300/playlist.m3u8",
    "latitude": 40.827195,
    "referrer": null,
    "locationId": "NY_NYC",
    "previewImageUrl": "https://511ny.org/map/Cctv/10277--36",
    "name": "Henry Hudson Pkwy at W. 145 Street",
    "targetCompressionRatio": 35,
    "id": 13407,
    "longitude": -73.953639
  },
  {
    "dateTime": 1675533259228,
    "videoStreamUrl": "https://s53.nysdot.skyvdn.com:443/rtplive/R11_235/playlist.m3u8",
    "latitude": 40.831263,
    "referrer": null,
    "locationId": "NY_NYC",
    "previewImageUrl": "https://511ny.org/map/Cctv/8216--36",
    "name": "Henry Hudson Pkwy at W. 150 St",
    "targetCompressionRatio": 35,
    "id": 4987,
    "longitude": -73.950866
  },
  {
    "dateTime": 1675533259228,
    "videoStreamUrl": "https://s51.nysdot.skyvdn.com:443/rtplive/R11_259/playlist.m3u8",
    "latitude": 40.839582,
    "referrer": null,
    "locationId": "NY_NYC",
    "previewImageUrl": "https://511ny.org/map/Cctv/8325--36",
    "name": "Henry Hudson Pkwy at W. 163 Street",
    "targetCompressionRatio": 35,
    "id": 4991,
    "longitude": -73.9466
  },
  {
    "dateTime": 1675533259228,
    "videoStreamUrl": "https://s53.nysdot.skyvdn.com:443/rtplive/R11_237/playlist.m3u8",
    "latitude": 40.846388,
    "referrer": null,
    "locationId": "NY_NYC",
    "previewImageUrl": "https://511ny.org/map/Cctv/8226--36",
    "name": "Henry Hudson Pkwy at W. 173 St",
    "targetCompressionRatio": 35,
    "id": 4988,
    "longitude": -73.943091
  },
  {
    "dateTime": 1675533259228,
    "videoStreamUrl": "https://s51.nysdot.skyvdn.com:443/rtplive/R11_267/playlist.m3u8",
    "latitude": 40.848609,
    "referrer": null,
    "locationId": "NY_NYC",
    "previewImageUrl": "https://511ny.org/map/Cctv/8342--36",
    "name": "Henry Hudson Pkwy at W. 177 Street",
    "targetCompressionRatio": 35,
    "id": 4993,
    "longitude": -73.943572
  },
  {
    "dateTime": 1675533259228,
    "videoStreamUrl": "https://s52.nysdot.skyvdn.com:443/rtplive/R11_242/playlist.m3u8",
    "latitude": 40.777266,
    "referrer": null,
    "locationId": "NY_NYC",
    "previewImageUrl": "https://511ny.org/map/Cctv/8245--36",
    "name": "Henry Hudson Pkwy at W. 66 Street",
    "targetCompressionRatio": 35,
    "id": 4989,
    "longitude": -73.990225
  },
  {
    "dateTime": 1675533259228,
    "videoStreamUrl": "https://s53.nysdot.skyvdn.com:443/rtplive/R11_298/playlist.m3u8",
    "latitude": 40.786592,
    "referrer": null,
    "locationId": "NY_NYC",
    "previewImageUrl": "https://511ny.org/map/Cctv/10193--36",
    "name": "Henry Hudson Pkwy at W. 81 Street",
    "targetCompressionRatio": 35,
    "id": 5375,
    "longitude": -73.983403
  },
  {
    "dateTime": 1675533259228,
    "videoStreamUrl": "https://s53.nysdot.skyvdn.com:443/rtplive/R11_295/playlist.m3u8",
    "latitude": 40.79346,
    "referrer": null,
    "locationId": "NY_NYC",
    "previewImageUrl": "https://511ny.org/map/Cctv/9999--36",
    "name": "Henry Hudson Pkwy at W. 91 Street",
    "targetCompressionRatio": 35,
    "id": 4994,
    "longitude": -73.97955
  },
  {
    "dateTime": 1675533259228,
    "videoStreamUrl": "https://s52.nysdot.skyvdn.com:443/rtplive/R2_070/playlist.m3u8",
    "latitude": 43.111933,
    "referrer": null,
    "locationId": "NY_RU",
    "previewImageUrl": "https://511ny.org/map/Cctv/10197--20",
    "name": "High Mast Genesee at Fleet #1",
    "targetCompressionRatio": 35,
    "id": 5371,
    "longitude": -75.216467
  },
  {
    "dateTime": 1675533259228,
    "videoStreamUrl": "https://s52.nysdot.skyvdn.com:443/rtplive/R2_071/playlist.m3u8",
    "latitude": 43.111849,
    "referrer": null,
    "locationId": "NY_RU",
    "previewImageUrl": "https://511ny.org/map/Cctv/10200--20",
    "name": "High Mast Genesee at Fleet #2",
    "targetCompressionRatio": 35,
    "id": 5372,
    "longitude": -75.216515
  },
  {
    "dateTime": 1675533259228,
    "videoStreamUrl": "https://s53.nysdot.skyvdn.com:443/rtplive/R4_221/playlist.m3u8",
    "latitude": 43.18682,
    "referrer": null,
    "locationId": "NY_RO",
    "previewImageUrl": "https://511ny.org/map/Cctv/4998--41",
    "name": "Hudson Ave at Norton St",
    "targetCompressionRatio": 35,
    "id": 4456,
    "longitude": -77.59957
  },
  {
    "dateTime": 1694196818183,
    "videoStreamUrl": "https://s52.nysdot.skyvdn.com:443/rtplive/R8_041/playlist.m3u8",
    "latitude": 40.977136,
    "referrer": null,
    "locationId": "NY_LI",
    "previewImageUrl": "https://511ny.org/map/Cctv/1857--13",
    "name": "Hutchinson River Parkway at Exit 12 (Mamaroneck Rd.)",
    "targetCompressionRatio": 35,
    "id": 13397,
    "longitude": -73.757885
  },
  {
    "dateTime": 1682775757606,
    "videoStreamUrl": "https://s51.nysdot.skyvdn.com:443/rtplive/R8_036/playlist.m3u8",
    "latitude": 40.892385,
    "referrer": null,
    "locationId": "NY_NYC",
    "previewImageUrl": "https://511ny.org/map/Cctv/5672--13",
    "name": "Hutchinson River Parkway At Exit 4B (US 1)",
    "targetCompressionRatio": 35,
    "id": 8451,
    "longitude": -73.815888
  },
  {
    "dateTime": 1675533259228,
    "videoStreamUrl": "https://s52.nysdot.skyvdn.com:443/rtplive/R4_247/playlist.m3u8",
    "latitude": 43.076131,
    "referrer": null,
    "locationId": "NY_RO",
    "previewImageUrl": "https://511ny.org/map/Cctv/5044--41",
    "name": "Hylan Dr at 390 Southbound",
    "targetCompressionRatio": 35,
    "id": 4487,
    "longitude": -77.626928
  },
  {
    "dateTime": 1675533259228,
    "videoStreamUrl": "https://s53.nysdot.skyvdn.com:443/rtplive/R4_257/playlist.m3u8",
    "latitude": 43.083005,
    "referrer": null,
    "locationId": "NY_RO",
    "previewImageUrl": "https://511ny.org/map/Cctv/5014--41",
    "name": "Hylan Dr at Mktplc Ctr and Wegmans",
    "targetCompressionRatio": 35,
    "id": 4465,
    "longitude": -77.629683
  },
  {
    "dateTime": 1675533259228,
    "videoStreamUrl": "https://s52.nysdot.skyvdn.com:443/rtplive/R5_100/playlist.m3u8",
    "latitude": 43.153909,
    "referrer": null,
    "locationId": "NY_BU",
    "previewImageUrl": "https://511ny.org/map/Cctv/6814--33",
    "name": "I-190 (Niagara Expy) at Canadian Toll Plaza",
    "targetCompressionRatio": 35,
    "id": 4190,
    "longitude": -79.048387
  },
  {
    "dateTime": 1675533259228,
    "videoStreamUrl": "https://s52.nysdot.skyvdn.com:443/rtplive/R5_101/playlist.m3u8",
    "latitude": 43.15271,
    "referrer": null,
    "locationId": "NY_BU",
    "previewImageUrl": "https://511ny.org/map/Cctv/6815--33",
    "name": "I-190 (Niagara Expy) at US Toll Plaza",
    "targetCompressionRatio": 35,
    "id": 4191,
    "longitude": -79.04287
  },
  {
    "dateTime": 1675533259228,
    "videoStreamUrl": "https://s51.nysdot.skyvdn.com:443/rtplive/R5_037/playlist.m3u8",
    "latitude": 43.089066,
    "referrer": null,
    "locationId": "NY_BU",
    "previewImageUrl": "https://511ny.org/map/Cctv/5634--33",
    "name": "I-190 at Exit 22 (Niagara Falls Boulevard) (1)",
    "targetCompressionRatio": 35,
    "id": 4634,
    "longitude": -78.990379
  },
  {
    "dateTime": 1675533259228,
    "videoStreamUrl": "https://s51.nysdot.skyvdn.com:443/rtplive/R5_039/playlist.m3u8",
    "latitude": 43.106944,
    "referrer": null,
    "locationId": "NY_BU",
    "previewImageUrl": "https://511ny.org/map/Cctv/5636--33",
    "name": "I-190 at Exit 23 (Packard Road) (1)",
    "targetCompressionRatio": 35,
    "id": 4635,
    "longitude": -78.989013
  },
  {
    "dateTime": 1694196818183,
    "videoStreamUrl": "https://s51.nysdot.skyvdn.com:443/rtplive/R5_040/playlist.m3u8",
    "latitude": 43.106944,
    "referrer": null,
    "locationId": "NY_BU",
    "previewImageUrl": "https://511ny.org/map/Cctv/5637--33",
    "name": "I-190 at Exit 23 (Packard Road) (2)",
    "targetCompressionRatio": 35,
    "id": 13405,
    "longitude": -78.989013
  },
  {
    "dateTime": 1675533259228,
    "videoStreamUrl": "https://s52.nysdot.skyvdn.com:443/rtplive/R5_042/playlist.m3u8",
    "latitude": 43.130157,
    "referrer": null,
    "locationId": "NY_BU",
    "previewImageUrl": "https://511ny.org/map/Cctv/1830--33",
    "name": "I-190 at Exit 24 (Witmer Road)",
    "targetCompressionRatio": 35,
    "id": 5111,
    "longitude": -79.018512
  },
  {
    "dateTime": 1675533259228,
    "videoStreamUrl": "https://s52.nysdot.skyvdn.com:443/rtplive/R5_043/playlist.m3u8",
    "latitude": 43.15145,
    "referrer": null,
    "locationId": "NY_BU",
    "previewImageUrl": "https://511ny.org/map/Cctv/1831--33",
    "name": "I-190 at Exit 25B (Upper Mountain Road)",
    "targetCompressionRatio": 35,
    "id": 4189,
    "longitude": -79.02776
  },
  {
    "dateTime": 1675533259228,
    "videoStreamUrl": "https://s58.nysdot.skyvdn.com:443/rtplive/TA_145/playlist.m3u8",
    "latitude": 42.89378,
    "referrer": null,
    "locationId": "NY_BU",
    "previewImageUrl": "https://511ny.org/map/Cctv/9948--43",
    "name": "I-190 at Hudson Street Pedestrian Bridge",
    "targetCompressionRatio": 35,
    "id": 4242,
    "longitude": -78.89302
  },
  {
    "dateTime": 1675533259228,
    "videoStreamUrl": "https://s58.nysdot.skyvdn.com:443/rtplive/TA_137/playlist.m3u8",
    "latitude": 42.8766,
    "referrer": null,
    "locationId": "NY_BU",
    "previewImageUrl": "https://511ny.org/map/Cctv/9904--43",
    "name": "I-190 at Interchange 1 (South Ogden Street)",
    "targetCompressionRatio": 35,
    "id": 4040,
    "longitude": -78.79731
  },
  {
    "dateTime": 1675533259228,
    "videoStreamUrl": "https://s58.nysdot.skyvdn.com:443/rtplive/TA_150/playlist.m3u8",
    "latitude": 42.92842,
    "referrer": null,
    "locationId": "NY_BU",
    "previewImageUrl": "https://511ny.org/map/Cctv/9952--43",
    "name": "I-190 at Interchange 11 (Scajaquada Expressway Route 198)",
    "targetCompressionRatio": 35,
    "id": 4246,
    "longitude": -78.8985
  },
  {
    "dateTime": 1675533259228,
    "videoStreamUrl": "https://s58.nysdot.skyvdn.com:443/rtplive/TA_151/playlist.m3u8",
    "latitude": 42.93482,
    "referrer": null,
    "locationId": "NY_BU",
    "previewImageUrl": "https://511ny.org/map/Cctv/9847--43",
    "name": "I-190 at Interchange 13 (Austin Street)",
    "targetCompressionRatio": 35,
    "id": 4381,
    "longitude": -78.90335
  },
  {
    "dateTime": 1675533259228,
    "videoStreamUrl": "https://s58.nysdot.skyvdn.com:443/rtplive/TA_152/playlist.m3u8",
    "latitude": 42.9443,
    "referrer": null,
    "locationId": "NY_BU",
    "previewImageUrl": "https://511ny.org/map/Cctv/9848--43",
    "name": "I-190 at Interchange 14 (Ontario Street)",
    "targetCompressionRatio": 35,
    "id": 4382,
    "longitude": -78.90804
  },
  {
    "dateTime": 1675533259228,
    "videoStreamUrl": "https://s58.nysdot.skyvdn.com:443/rtplive/TA_153/playlist.m3u8",
    "latitude": 42.97312,
    "referrer": null,
    "locationId": "NY_BU",
    "previewImageUrl": "https://511ny.org/map/Cctv/9849--43",
    "name": "I-190 at Interchange 15 (Sheridan Drive)",
    "targetCompressionRatio": 35,
    "id": 4383,
    "longitude": -78.91179
  },
  {
    "dateTime": 1675533259228,
    "videoStreamUrl": "https://s58.nysdot.skyvdn.com:443/rtplive/TA_156/playlist.m3u8",
    "latitude": 42.9949,
    "referrer": null,
    "locationId": "NY_BU",
    "previewImageUrl": "https://511ny.org/map/Cctv/9852--43",
    "name": "I-190 at Interchange 17 (River Road) South Grand Island Bridge Toll Barrier",
    "targetCompressionRatio": 35,
    "id": 4387,
    "longitude": -78.9307
  },
  {
    "dateTime": 1675533259228,
    "videoStreamUrl": "https://s58.nysdot.skyvdn.com:443/rtplive/TA_167/playlist.m3u8",
    "latitude": 43.00511,
    "referrer": null,
    "locationId": "NY_BU",
    "previewImageUrl": "https://511ny.org/map/Cctv/9961--43",
    "name": "I-190 at Interchange 18B",
    "targetCompressionRatio": 35,
    "id": 4062,
    "longitude": -78.9476
  },
  {
    "dateTime": 1675533259228,
    "videoStreamUrl": "https://s58.nysdot.skyvdn.com:443/rtplive/TA_158/playlist.m3u8",
    "latitude": 43.02117,
    "referrer": null,
    "locationId": "NY_BU",
    "previewImageUrl": "https://511ny.org/map/Cctv/9853--43",
    "name": "I-190 at Interchange 19 (Whitehaven Road)",
    "targetCompressionRatio": 35,
    "id": 4388,
    "longitude": -78.97371
  },
  {
    "dateTime": 1675533259228,
    "videoStreamUrl": "https://s58.nysdot.skyvdn.com:443/rtplive/TA_138/playlist.m3u8",
    "latitude": 42.87354,
    "referrer": null,
    "locationId": "NY_BU",
    "previewImageUrl": "https://511ny.org/map/Cctv/9905--43",
    "name": "I-190 at Interchange 2 (Clinton Street Route 354)",
    "targetCompressionRatio": 35,
    "id": 4041,
    "longitude": -78.81479
  },
  {
    "dateTime": 1675533259228,
    "videoStreamUrl": "https://s58.nysdot.skyvdn.com:443/rtplive/TA_159/playlist.m3u8",
    "latitude": 43.04827,
    "referrer": null,
    "locationId": "NY_BU",
    "previewImageUrl": "https://511ny.org/map/Cctv/9854--43",
    "name": "I-190 at Interchange 20 (Long Road)",
    "targetCompressionRatio": 35,
    "id": 4389,
    "longitude": -78.99087
  },
  {
    "dateTime": 1675533259228,
    "videoStreamUrl": "https://s58.nysdot.skyvdn.com:443/rtplive/TA_160/playlist.m3u8",
    "latitude": 43.05314,
    "referrer": null,
    "locationId": "NY_BU",
    "previewImageUrl": "https://511ny.org/map/Cctv/9855--43",
    "name": "I-190 at Interchange 20A (West River Pkwy)",
    "targetCompressionRatio": 35,
    "id": 4390,
    "longitude": -78.99095
  },
  {
    "dateTime": 1675533259228,
    "videoStreamUrl": "https://s58.nysdot.skyvdn.com:443/rtplive/TA_162/playlist.m3u8",
    "latitude": 43.0754,
    "referrer": null,
    "locationId": "NY_BU",
    "previewImageUrl": "https://511ny.org/map/Cctv/9857--43",
    "name": "I-190 at Interchange 21 (Buffalo Avenue Route 384)",
    "targetCompressionRatio": 35,
    "id": 4392,
    "longitude": -78.99074
  },
  {
    "dateTime": 1675533259228,
    "videoStreamUrl": "https://s58.nysdot.skyvdn.com:443/rtplive/TA_139/playlist.m3u8",
    "latitude": 42.86784,
    "referrer": null,
    "locationId": "NY_BU",
    "previewImageUrl": "https://511ny.org/map/Cctv/9906--43",
    "name": "I-190 at Interchange 3 (Seneca Street Route 16)",
    "targetCompressionRatio": 35,
    "id": 4042,
    "longitude": -78.82966
  },
  {
    "dateTime": 1675533259228,
    "videoStreamUrl": "https://s58.nysdot.skyvdn.com:443/rtplive/TA_140/playlist.m3u8",
    "latitude": 42.87141,
    "referrer": null,
    "locationId": "NY_BU",
    "previewImageUrl": "https://511ny.org/map/Cctv/9907--43",
    "name": "I-190 at Interchange 4 (Smith Street)",
    "targetCompressionRatio": 35,
    "id": 4043,
    "longitude": -78.84682
  },
  {
    "dateTime": 1675533259228,
    "videoStreamUrl": "https://s58.nysdot.skyvdn.com:443/rtplive/TA_141/playlist.m3u8",
    "latitude": 42.8733,
    "referrer": null,
    "locationId": "NY_BU",
    "previewImageUrl": "https://511ny.org/map/Cctv/9944--43",
    "name": "I-190 at Interchange 5 (Hamburg Street)",
    "targetCompressionRatio": 35,
    "id": 4238,
    "longitude": -78.85812
  },
  {
    "dateTime": 1675533259228,
    "videoStreamUrl": "https://s58.nysdot.skyvdn.com:443/rtplive/TA_163/playlist.m3u8",
    "latitude": 42.87732,
    "referrer": null,
    "locationId": "NY_BU",
    "previewImageUrl": "https://511ny.org/map/Cctv/10217--43",
    "name": "I-190 at Interchange 6 (Elm Street)",
    "targetCompressionRatio": 35,
    "id": 4086,
    "longitude": -78.87244
  },
  {
    "dateTime": 1675533259228,
    "videoStreamUrl": "https://s58.nysdot.skyvdn.com:443/rtplive/TA_143/playlist.m3u8",
    "latitude": 42.88529,
    "referrer": null,
    "locationId": "NY_BU",
    "previewImageUrl": "https://511ny.org/map/Cctv/9946--43",
    "name": "I-190 at Interchange 7 (Church Street)",
    "targetCompressionRatio": 35,
    "id": 4240,
    "longitude": -78.8846
  },
  {
    "dateTime": 1675533259228,
    "videoStreamUrl": "https://s58.nysdot.skyvdn.com:443/rtplive/TA_142/playlist.m3u8",
    "latitude": 42.88001,
    "referrer": null,
    "locationId": "NY_BU",
    "previewImageUrl": "https://511ny.org/map/Cctv/9945--43",
    "name": "I-190 at Interchange 7 (Route 5 Skyway)",
    "targetCompressionRatio": 35,
    "id": 4239,
    "longitude": -78.87882
  },
  {
    "dateTime": 1675533259228,
    "videoStreamUrl": "https://s58.nysdot.skyvdn.com:443/rtplive/TA_144/playlist.m3u8",
    "latitude": 42.8902,
    "referrer": null,
    "locationId": "NY_BU",
    "previewImageUrl": "https://511ny.org/map/Cctv/9947--43",
    "name": "I-190 at Interchange 8 (Niagara Street)",
    "targetCompressionRatio": 35,
    "id": 4241,
    "longitude": -78.88921
  },
  {
    "dateTime": 1675533259228,
    "videoStreamUrl": "https://s58.nysdot.skyvdn.com:443/rtplive/TA_146/playlist.m3u8",
    "latitude": 42.89837,
    "referrer": null,
    "locationId": "NY_BU",
    "previewImageUrl": "https://511ny.org/map/Cctv/9956--43",
    "name": "I-190 at Interchange 9 - Porter Avenue - Peace Bridge",
    "targetCompressionRatio": 35,
    "id": 4059,
    "longitude": -78.89748
  },
  {
    "dateTime": 1675533259228,
    "videoStreamUrl": "https://s58.nysdot.skyvdn.com:443/rtplive/TA_161/playlist.m3u8",
    "latitude": 43.0615,
    "referrer": null,
    "locationId": "NY_BU",
    "previewImageUrl": "https://511ny.org/map/Cctv/9856--43",
    "name": "I-190 at the Niagara Toll Barrier (Base of the North Grand Island Bridge)",
    "targetCompressionRatio": 35,
    "id": 4391,
    "longitude": -78.9911
  },
  {
    "dateTime": 1675533259228,
    "videoStreamUrl": "https://s52.nysdot.skyvdn.com:443/rtplive/R5_041/playlist.m3u8",
    "latitude": 43.119579,
    "referrer": null,
    "locationId": "NY_BU",
    "previewImageUrl": "https://511ny.org/map/Cctv/1829--33",
    "name": "I-190 between Porter Road and Exit 24 (Witmer Road)",
    "targetCompressionRatio": 35,
    "id": 5110,
    "longitude": -79.003124
  },
  {
    "dateTime": 1675533259228,
    "videoStreamUrl": "https://s58.nysdot.skyvdn.com:443/rtplive/TA_154/playlist.m3u8",
    "latitude": 42.9876,
    "referrer": null,
    "locationId": "NY_BU",
    "previewImageUrl": "https://511ny.org/map/Cctv/9850--43",
    "name": "I-190 Junction of I-190 and I-290 View 1",
    "targetCompressionRatio": 35,
    "id": 4384,
    "longitude": -78.9139
  },
  {
    "dateTime": 1675533259228,
    "videoStreamUrl": "https://s58.nysdot.skyvdn.com:443/rtplive/TA_155/playlist.m3u8",
    "latitude": 42.9876,
    "referrer": null,
    "locationId": "NY_BU",
    "previewImageUrl": "https://511ny.org/map/Cctv/9851--43",
    "name": "I-190 Junction of I-190 and I-290 View 2",
    "targetCompressionRatio": 35,
    "id": 4063,
    "longitude": -78.9139
  },
  {
    "dateTime": 1675533259228,
    "videoStreamUrl": "https://s58.nysdot.skyvdn.com:443/rtplive/TA_149/playlist.m3u8",
    "latitude": 42.9278,
    "referrer": null,
    "locationId": "NY_BU",
    "previewImageUrl": "https://511ny.org/map/Cctv/9951--43",
    "name": "I-190 Just South of Interchange 11 (Scajaquada Expressway Route 198)",
    "targetCompressionRatio": 35,
    "id": 4245,
    "longitude": -78.8983
  },
  {
    "dateTime": 1675533259228,
    "videoStreamUrl": "https://s58.nysdot.skyvdn.com:443/rtplive/TA_148/playlist.m3u8",
    "latitude": 42.92106,
    "referrer": null,
    "locationId": "NY_BU",
    "previewImageUrl": "https://511ny.org/map/Cctv/9950--43",
    "name": "I-190 Near Breckenridge Street",
    "targetCompressionRatio": 35,
    "id": 4244,
    "longitude": -78.89989
  },
  {
    "dateTime": 1675533259228,
    "videoStreamUrl": "https://s58.nysdot.skyvdn.com:443/rtplive/TA_147/playlist.m3u8",
    "latitude": 42.90198,
    "referrer": null,
    "locationId": "NY_BU",
    "previewImageUrl": "https://511ny.org/map/Cctv/9949--43",
    "name": "I-190 South of the Peace Bridge",
    "targetCompressionRatio": 35,
    "id": 4243,
    "longitude": -78.90086
  },
  {
    "dateTime": 1675533259228,
    "videoStreamUrl": "https://s51.nysdot.skyvdn.com:443/rtplive/R11_095/playlist.m3u8",
    "latitude": 40.661152,
    "referrer": null,
    "locationId": "NY_NYC",
    "previewImageUrl": "https://511ny.org/map/Cctv/5815--36",
    "name": "I-278 at 26th Street",
    "targetCompressionRatio": 35,
    "id": 4963,
    "longitude": -74.000813
  },
  {
    "dateTime": 1675533259228,
    "videoStreamUrl": "https://s52.nysdot.skyvdn.com:443/rtplive/R11_103/playlist.m3u8",
    "latitude": 40.759356,
    "referrer": null,
    "locationId": "NY_NYC",
    "previewImageUrl": "https://511ny.org/map/Cctv/2009--36",
    "name": "I-278 at 30th Avenue",
    "targetCompressionRatio": 35,
    "id": 4908,
    "longitude": -73.901707
  },
  {
    "dateTime": 1675533259228,
    "videoStreamUrl": "https://s52.nysdot.skyvdn.com:443/rtplive/R11_102/playlist.m3u8",
    "latitude": 40.758354,
    "referrer": null,
    "locationId": "NY_NYC",
    "previewImageUrl": "https://511ny.org/map/Cctv/2008--36",
    "name": "I-278 at 31st Avenue",
    "targetCompressionRatio": 35,
    "id": 4907,
    "longitude": -73.901062
  },
  {
    "dateTime": 1675533259228,
    "videoStreamUrl": "https://s51.nysdot.skyvdn.com:443/rtplive/R11_094/playlist.m3u8",
    "latitude": 40.655767,
    "referrer": null,
    "locationId": "NY_NYC",
    "previewImageUrl": "https://511ny.org/map/Cctv/5814--36",
    "name": "I-278 at 37th street",
    "targetCompressionRatio": 35,
    "id": 4962,
    "longitude": -74.006388
  },
  {
    "dateTime": 1675533259228,
    "videoStreamUrl": "https://s53.nysdot.skyvdn.com:443/rtplive/R11_261/playlist.m3u8",
    "latitude": 40.744707,
    "referrer": null,
    "locationId": "NY_NYC",
    "previewImageUrl": "https://511ny.org/map/Cctv/8334--36",
    "name": "I-278 at 41 ave",
    "targetCompressionRatio": 35,
    "id": 5121,
    "longitude": -73.894552
  },
  {
    "dateTime": 1675533259228,
    "videoStreamUrl": "https://s51.nysdot.skyvdn.com:443/rtplive/R11_098/playlist.m3u8",
    "latitude": 40.735025,
    "referrer": null,
    "locationId": "NY_NYC",
    "previewImageUrl": "https://511ny.org/map/Cctv/5818--36",
    "name": "I-278 at 45th Street",
    "targetCompressionRatio": 35,
    "id": 4925,
    "longitude": -73.92115
  },
  {
    "dateTime": 1675533259228,
    "videoStreamUrl": "https://s52.nysdot.skyvdn.com:443/rtplive/R11_104/playlist.m3u8",
    "latitude": 40.76568,
    "referrer": null,
    "locationId": "NY_NYC",
    "previewImageUrl": "https://511ny.org/map/Cctv/2010--36",
    "name": "I-278 at 49th Street",
    "targetCompressionRatio": 35,
    "id": 5384,
    "longitude": -73.903389
  },
  {
    "dateTime": 1675533259228,
    "videoStreamUrl": "https://s51.nysdot.skyvdn.com:443/rtplive/R11_096/playlist.m3u8",
    "latitude": 40.732548,
    "referrer": null,
    "locationId": "NY_NYC",
    "previewImageUrl": "https://511ny.org/map/Cctv/5816--36",
    "name": "I-278 at 54th Avenue",
    "targetCompressionRatio": 35,
    "id": 5198,
    "longitude": -73.924803
  },
  {
    "dateTime": 1675533259228,
    "videoStreamUrl": "https://s51.nysdot.skyvdn.com:443/rtplive/R11_093/playlist.m3u8",
    "latitude": 40.645287,
    "referrer": null,
    "locationId": "NY_NYC",
    "previewImageUrl": "https://511ny.org/map/Cctv/5813--36",
    "name": "I-278 at 54th Street",
    "targetCompressionRatio": 35,
    "id": 4961,
    "longitude": -74.01669
  },
  {
    "dateTime": 1675533259228,
    "videoStreamUrl": "https://s51.nysdot.skyvdn.com:443/rtplive/R11_222/playlist.m3u8",
    "latitude": 40.729108,
    "referrer": null,
    "locationId": "NY_NYC",
    "previewImageUrl": "https://511ny.org/map/Cctv/6754--36",
    "name": "I-278 at 56th Road",
    "targetCompressionRatio": 35,
    "id": 4902,
    "longitude": -73.927611
  },
  {
    "dateTime": 1675533259228,
    "videoStreamUrl": "https://s53.nysdot.skyvdn.com:443/rtplive/R11_262/playlist.m3u8",
    "latitude": 40.736439,
    "referrer": null,
    "locationId": "NY_NYC",
    "previewImageUrl": "https://511ny.org/map/Cctv/8335--36",
    "name": "I-278 at 58 st",
    "targetCompressionRatio": 35,
    "id": 4355,
    "longitude": -73.909193
  },
  {
    "dateTime": 1675533259228,
    "videoStreamUrl": "https://s51.nysdot.skyvdn.com:443/rtplive/R11_099/playlist.m3u8",
    "latitude": 40.737692,
    "referrer": null,
    "locationId": "NY_NYC",
    "previewImageUrl": "https://511ny.org/map/Cctv/5819--36",
    "name": "I-278 at 61st Street",
    "targetCompressionRatio": 35,
    "id": 4926,
    "longitude": -73.904646
  },
  {
    "dateTime": 1675533259228,
    "videoStreamUrl": "https://s51.nysdot.skyvdn.com:443/rtplive/R11_247/playlist.m3u8",
    "latitude": 40.641148,
    "referrer": null,
    "locationId": "NY_NYC",
    "previewImageUrl": "https://511ny.org/map/Cctv/8257--36",
    "name": "I-278 at 63rd Street",
    "targetCompressionRatio": 35,
    "id": 5005,
    "longitude": -74.021377
  },
  {
    "dateTime": 1675533259228,
    "videoStreamUrl": "https://s53.nysdot.skyvdn.com:443/rtplive/R11_089/playlist.m3u8",
    "latitude": 40.628871,
    "referrer": null,
    "locationId": "NY_NYC",
    "previewImageUrl": "https://511ny.org/map/Cctv/2313--36",
    "name": "I-278 at 72nd Street",
    "targetCompressionRatio": 35,
    "id": 4959,
    "longitude": -74.01736
  },
  {
    "dateTime": 1675533259228,
    "videoStreamUrl": "https://s53.nysdot.skyvdn.com:443/rtplive/R11_088/playlist.m3u8",
    "latitude": 40.623855,
    "referrer": null,
    "locationId": "NY_NYC",
    "previewImageUrl": "https://511ny.org/map/Cctv/2312--36",
    "name": "I-278 at 79th Street",
    "targetCompressionRatio": 35,
    "id": 4958,
    "longitude": -74.019785
  },
  {
    "dateTime": 1675533259228,
    "videoStreamUrl": "https://s53.nysdot.skyvdn.com:443/rtplive/R11_086/playlist.m3u8",
    "latitude": 40.616282,
    "referrer": null,
    "locationId": "NY_NYC",
    "previewImageUrl": "https://511ny.org/map/Cctv/2310--36",
    "name": "I-278 at 92nd Street",
    "targetCompressionRatio": 35,
    "id": 4956,
    "longitude": -74.026136
  },
  {
    "dateTime": 1675533259228,
    "videoStreamUrl": "https://s52.nysdot.skyvdn.com:443/rtplive/R11_072/playlist.m3u8",
    "latitude": 40.701517,
    "referrer": null,
    "locationId": "NY_NYC",
    "previewImageUrl": "https://511ny.org/map/Cctv/1998--36",
    "name": "I-278 at Adams Street",
    "targetCompressionRatio": 35,
    "id": 4903,
    "longitude": -73.988836
  },
  {
    "dateTime": 1675533259228,
    "videoStreamUrl": "https://s51.nysdot.skyvdn.com:443/rtplive/R11_065/playlist.m3u8",
    "latitude": 40.690581,
    "referrer": null,
    "locationId": "NY_NYC",
    "previewImageUrl": "https://511ny.org/map/Cctv/5805--36",
    "name": "I-278 at Atlantic Avenue",
    "targetCompressionRatio": 35,
    "id": 4918,
    "longitude": -73.998548
  },
  {
    "dateTime": 1675533259228,
    "videoStreamUrl": "https://s53.nysdot.skyvdn.com:443/rtplive/R11_090/playlist.m3u8",
    "latitude": 40.633219,
    "referrer": null,
    "locationId": "NY_NYC",
    "previewImageUrl": "https://511ny.org/map/Cctv/2314--36",
    "name": "I-278 at Between 6th 7th Avenue",
    "targetCompressionRatio": 35,
    "id": 4960,
    "longitude": -74.016266
  },
  {
    "dateTime": 1675533259228,
    "videoStreamUrl": "https://s51.nysdot.skyvdn.com:443/rtplive/R11_216/playlist.m3u8",
    "latitude": 40.607945,
    "referrer": null,
    "locationId": "NY_NYC",
    "previewImageUrl": "https://511ny.org/map/Cctv/5916--36",
    "name": "I-278 at Bradley Avenue",
    "targetCompressionRatio": 35,
    "id": 5056,
    "longitude": -74.131892
  },
  {
    "dateTime": 1675533259228,
    "videoStreamUrl": "https://s51.nysdot.skyvdn.com:443/rtplive/R11_100/playlist.m3u8",
    "latitude": 40.749296,
    "referrer": null,
    "locationId": "NY_NYC",
    "previewImageUrl": "https://511ny.org/map/Cctv/5820--36",
    "name": "I-278 at Broadway",
    "targetCompressionRatio": 35,
    "id": 4927,
    "longitude": -73.896779
  },
  {
    "dateTime": 1675533259228,
    "videoStreamUrl": "https://s51.nysdot.skyvdn.com:443/rtplive/R11_005/playlist.m3u8",
    "latitude": 40.824441,
    "referrer": null,
    "locationId": "NY_NYC",
    "previewImageUrl": "https://511ny.org/map/Cctv/5785--36",
    "name": "I-278 at Bronx River Parkway",
    "targetCompressionRatio": 35,
    "id": 4931,
    "longitude": -73.872698
  },
  {
    "dateTime": 1675533259228,
    "videoStreamUrl": "https://s51.nysdot.skyvdn.com:443/rtplive/R11_006/playlist.m3u8",
    "latitude": 40.827303,
    "referrer": null,
    "locationId": "NY_NYC",
    "previewImageUrl": "https://511ny.org/map/Cctv/5786--36",
    "name": "I-278 at Castle Hill Avenue",
    "targetCompressionRatio": 35,
    "id": 4932,
    "longitude": -73.849905
  },
  {
    "dateTime": 1675533259228,
    "videoStreamUrl": "https://s51.nysdot.skyvdn.com:443/rtplive/R11_218/playlist.m3u8",
    "latitude": 40.610201,
    "referrer": null,
    "locationId": "NY_NYC",
    "previewImageUrl": "https://511ny.org/map/Cctv/5918--36",
    "name": "I-278 at Clove Road",
    "targetCompressionRatio": 35,
    "id": 5058,
    "longitude": -74.092549
  },
  {
    "dateTime": 1675533259228,
    "videoStreamUrl": "https://s51.nysdot.skyvdn.com:443/rtplive/R11_221/playlist.m3u8",
    "latitude": 40.67999,
    "referrer": null,
    "locationId": "NY_NYC",
    "previewImageUrl": "https://511ny.org/map/Cctv/6716--36",
    "name": "I-278 at Coles St",
    "targetCompressionRatio": 35,
    "id": 5108,
    "longitude": -74.004247
  },
  {
    "dateTime": 1675533259228,
    "videoStreamUrl": "https://s51.nysdot.skyvdn.com:443/rtplive/R11_063/playlist.m3u8",
    "latitude": 40.689685,
    "referrer": null,
    "locationId": "NY_NYC",
    "previewImageUrl": "https://511ny.org/map/Cctv/5803--36",
    "name": "I-278 at Congress Street",
    "targetCompressionRatio": 35,
    "id": 4917,
    "longitude": -73.998735
  },
  {
    "dateTime": 1675533259228,
    "videoStreamUrl": "https://s52.nysdot.skyvdn.com:443/rtplive/R11_106/playlist.m3u8",
    "latitude": 40.764773,
    "referrer": null,
    "locationId": "NY_NYC",
    "previewImageUrl": "https://511ny.org/map/Cctv/2012--36",
    "name": "I-278 at Connector to G.C.P. and Astoria Blvd.",
    "targetCompressionRatio": 35,
    "id": 5385,
    "longitude": -73.894705
  },
  {
    "dateTime": 1675533259228,
    "videoStreamUrl": "https://s51.nysdot.skyvdn.com:443/rtplive/R11_214/playlist.m3u8",
    "latitude": 40.607469,
    "referrer": null,
    "locationId": "NY_NYC",
    "previewImageUrl": "https://511ny.org/map/Cctv/5914--36",
    "name": "I-278 at Crafton Avenue",
    "targetCompressionRatio": 35,
    "id": 5054,
    "longitude": -74.141823
  },
  {
    "dateTime": 1675533259228,
    "videoStreamUrl": "https://s51.nysdot.skyvdn.com:443/rtplive/R11_007/playlist.m3u8",
    "latitude": 40.829767,
    "referrer": null,
    "locationId": "NY_NYC",
    "previewImageUrl": "https://511ny.org/map/Cctv/5787--36",
    "name": "I-278 at Cross Brx. Expwy and Hutchinson Interchange",
    "targetCompressionRatio": 35,
    "id": 5004,
    "longitude": -73.834824
  },
  {
    "dateTime": 1675533259228,
    "videoStreamUrl": "https://s52.nysdot.skyvdn.com:443/rtplive/R11_078/playlist.m3u8",
    "latitude": 40.707585,
    "referrer": null,
    "locationId": "NY_NYC",
    "previewImageUrl": "https://511ny.org/map/Cctv/2004--36",
    "name": "I-278 at Division Avenue",
    "targetCompressionRatio": 35,
    "id": 5382,
    "longitude": -73.957412
  },
  {
    "dateTime": 1675533259228,
    "videoStreamUrl": "https://s51.nysdot.skyvdn.com:443/rtplive/R11_002/playlist.m3u8",
    "latitude": 40.809939,
    "referrer": null,
    "locationId": "NY_NYC",
    "previewImageUrl": "https://511ny.org/map/Cctv/5782--36",
    "name": "I-278 at East 149th Street",
    "targetCompressionRatio": 35,
    "id": 4929,
    "longitude": -73.902709
  },
  {
    "dateTime": 1675533259228,
    "videoStreamUrl": "https://s51.nysdot.skyvdn.com:443/rtplive/R11_243/playlist.m3u8",
    "latitude": 40.60406,
    "referrer": null,
    "locationId": "NY_NYC",
    "previewImageUrl": "https://511ny.org/map/Cctv/8249--36",
    "name": "I-278 at Fingerboard Road",
    "targetCompressionRatio": 35,
    "id": 5064,
    "longitude": -74.069363
  },
  {
    "dateTime": 1675533259228,
    "videoStreamUrl": "https://s53.nysdot.skyvdn.com:443/rtplive/R11_207/playlist.m3u8",
    "latitude": 40.625312,
    "referrer": null,
    "locationId": "NY_NYC",
    "previewImageUrl": "https://511ny.org/map/Cctv/5972--36",
    "name": "I-278 at Forest Avenue",
    "targetCompressionRatio": 35,
    "id": 5061,
    "longitude": -74.17785
  },
  {
    "dateTime": 1675533259228,
    "videoStreamUrl": "https://s53.nysdot.skyvdn.com:443/rtplive/R11_087/playlist.m3u8",
    "latitude": 40.625109,
    "referrer": null,
    "locationId": "NY_NYC",
    "previewImageUrl": "https://511ny.org/map/Cctv/2311--36",
    "name": "I-278 at Ft. Hamilton Pkwy",
    "targetCompressionRatio": 35,
    "id": 4957,
    "longitude": -74.01912
  },
  {
    "dateTime": 1675533259228,
    "videoStreamUrl": "https://s51.nysdot.skyvdn.com:443/rtplive/R11_069/playlist.m3u8",
    "latitude": 40.69995,
    "referrer": null,
    "locationId": "NY_NYC",
    "previewImageUrl": "https://511ny.org/map/Cctv/5809--36",
    "name": "I-278 at Furman Street and Lwr. Lvl.",
    "targetCompressionRatio": 35,
    "id": 4922,
    "longitude": -73.996221
  },
  {
    "dateTime": 1675533259228,
    "videoStreamUrl": "https://s51.nysdot.skyvdn.com:443/rtplive/R11_068/playlist.m3u8",
    "latitude": 40.699951,
    "referrer": null,
    "locationId": "NY_NYC",
    "previewImageUrl": "https://511ny.org/map/Cctv/5808--36",
    "name": "I-278 at Furman Street and Uppr. Lvl.",
    "targetCompressionRatio": 35,
    "id": 4921,
    "longitude": -73.996223
  },
  {
    "dateTime": 1682775757606,
    "videoStreamUrl": "https://s52.nysdot.skyvdn.com:443/rtplive/R11_105/playlist.m3u8",
    "latitude": 40.758099,
    "referrer": null,
    "locationId": "NY_NYC",
    "previewImageUrl": "https://511ny.org/map/Cctv/2011--36",
    "name": "I-278 at G.C.P. and Connector at 31st Avenue",
    "targetCompressionRatio": 35,
    "id": 8441,
    "longitude": -73.899761
  },
  {
    "dateTime": 1675533259228,
    "videoStreamUrl": "https://s51.nysdot.skyvdn.com:443/rtplive/R11_234/playlist.m3u8",
    "latitude": 40.671702,
    "referrer": null,
    "locationId": "NY_NYC",
    "previewImageUrl": "https://511ny.org/map/Cctv/8188--36",
    "name": "I-278 at Gowanus Canal",
    "targetCompressionRatio": 35,
    "id": 4955,
    "longitude": -73.998599
  },
  {
    "dateTime": 1675533259228,
    "videoStreamUrl": "https://s53.nysdot.skyvdn.com:443/rtplive/R11_081/playlist.m3u8",
    "latitude": 40.710536,
    "referrer": null,
    "locationId": "NY_NYC",
    "previewImageUrl": "https://511ny.org/map/Cctv/2305--36",
    "name": "I-278 at Grand Street and Overpass",
    "targetCompressionRatio": 35,
    "id": 4911,
    "longitude": -73.95588
  },
  {
    "dateTime": 1675533259228,
    "videoStreamUrl": "https://s53.nysdot.skyvdn.com:443/rtplive/R11_058/playlist.m3u8",
    "latitude": 40.679702,
    "referrer": null,
    "locationId": "NY_NYC",
    "previewImageUrl": "https://511ny.org/map/Cctv/2302--36",
    "name": "I-278 at Hamilton Avenue",
    "targetCompressionRatio": 35,
    "id": 4909,
    "longitude": -74.003698
  },
  {
    "dateTime": 1675533259228,
    "videoStreamUrl": "https://s51.nysdot.skyvdn.com:443/rtplive/R11_003/playlist.m3u8",
    "latitude": 40.820157,
    "referrer": null,
    "locationId": "NY_NYC",
    "previewImageUrl": "https://511ny.org/map/Cctv/5783--36",
    "name": "I-278 at Hunts Point Avenue",
    "targetCompressionRatio": 35,
    "id": 4930,
    "longitude": -73.889935
  },
  {
    "dateTime": 1675533259228,
    "videoStreamUrl": "https://s51.nysdot.skyvdn.com:443/rtplive/R11_219/playlist.m3u8",
    "latitude": 40.606423,
    "referrer": null,
    "locationId": "NY_NYC",
    "previewImageUrl": "https://511ny.org/map/Cctv/5919--36",
    "name": "I-278 at Hylan Blvd",
    "targetCompressionRatio": 35,
    "id": 5059,
    "longitude": -74.077846
  },
  {
    "dateTime": 1675533259228,
    "videoStreamUrl": "https://s52.nysdot.skyvdn.com:443/rtplive/R11_075/playlist.m3u8",
    "latitude": 40.699898,
    "referrer": null,
    "locationId": "NY_NYC",
    "previewImageUrl": "https://511ny.org/map/Cctv/2001--36",
    "name": "I-278 at Kent Avenue",
    "targetCompressionRatio": 35,
    "id": 5380,
    "longitude": -73.962065
  },
  {
    "dateTime": 1675533259228,
    "videoStreamUrl": "https://s53.nysdot.skyvdn.com:443/rtplive/R11_210/playlist.m3u8",
    "latitude": 40.618041,
    "referrer": null,
    "locationId": "NY_NYC",
    "previewImageUrl": "https://511ny.org/map/Cctv/5975--36",
    "name": "I-278 at Lambert Street",
    "targetCompressionRatio": 35,
    "id": 5063,
    "longitude": -74.161434
  },
  {
    "dateTime": 1675533259228,
    "videoStreamUrl": "https://s52.nysdot.skyvdn.com:443/rtplive/R11_077/playlist.m3u8",
    "latitude": 40.705248,
    "referrer": null,
    "locationId": "NY_NYC",
    "previewImageUrl": "https://511ny.org/map/Cctv/2003--36",
    "name": "I-278 at Lee Avenue",
    "targetCompressionRatio": 35,
    "id": 4905,
    "longitude": -73.959172
  },
  {
    "dateTime": 1675533259228,
    "videoStreamUrl": "https://s53.nysdot.skyvdn.com:443/rtplive/R11_083/playlist.m3u8",
    "latitude": 40.718992,
    "referrer": null,
    "locationId": "NY_NYC",
    "previewImageUrl": "https://511ny.org/map/Cctv/2307--36",
    "name": "I-278 at Manhattan Avenue",
    "targetCompressionRatio": 35,
    "id": 4913,
    "longitude": -73.946421
  },
  {
    "dateTime": 1675533259228,
    "videoStreamUrl": "https://s51.nysdot.skyvdn.com:443/rtplive/R11_248/playlist.m3u8",
    "latitude": 40.609517,
    "referrer": null,
    "locationId": "NY_NYC",
    "previewImageUrl": "https://511ny.org/map/Cctv/8259--36",
    "name": "I-278 at Manor Road",
    "targetCompressionRatio": 35,
    "id": 5065,
    "longitude": -74.121885
  },
  {
    "dateTime": 1675533259228,
    "videoStreamUrl": "https://s53.nysdot.skyvdn.com:443/rtplive/R11_082/playlist.m3u8",
    "latitude": 40.713701,
    "referrer": null,
    "locationId": "NY_NYC",
    "previewImageUrl": "https://511ny.org/map/Cctv/2306--36",
    "name": "I-278 at Metropolitan Avenue",
    "targetCompressionRatio": 35,
    "id": 4912,
    "longitude": -73.95327
  },
  {
    "dateTime": 1682775757606,
    "videoStreamUrl": "https://s52.nysdot.skyvdn.com:443/rtplive/R11_071/playlist.m3u8",
    "latitude": 40.701208,
    "referrer": null,
    "locationId": "NY_NYC",
    "previewImageUrl": "https://511ny.org/map/Cctv/1997--36",
    "name": "I-278 at Middagh Street and Lwr. Lvl.",
    "targetCompressionRatio": 35,
    "id": 8440,
    "longitude": -73.994466
  },
  {
    "dateTime": 1675533259228,
    "videoStreamUrl": "https://s51.nysdot.skyvdn.com:443/rtplive/R11_070/playlist.m3u8",
    "latitude": 40.701206,
    "referrer": null,
    "locationId": "NY_NYC",
    "previewImageUrl": "https://511ny.org/map/Cctv/5810--36",
    "name": "I-278 at Middagh Street and Uppr Lvl.",
    "targetCompressionRatio": 35,
    "id": 4923,
    "longitude": -73.994465
  },
  {
    "dateTime": 1675533259228,
    "videoStreamUrl": "https://s53.nysdot.skyvdn.com:443/rtplive/R11_084/playlist.m3u8",
    "latitude": 40.722951,
    "referrer": null,
    "locationId": "NY_NYC",
    "previewImageUrl": "https://511ny.org/map/Cctv/2308--36",
    "name": "I-278 at Morgan Avenue",
    "targetCompressionRatio": 35,
    "id": 4914,
    "longitude": -73.939997
  },
  {
    "dateTime": 1675533259228,
    "videoStreamUrl": "https://s51.nysdot.skyvdn.com:443/rtplive/R11_220/playlist.m3u8",
    "latitude": 40.60743,
    "referrer": null,
    "locationId": "NY_NYC",
    "previewImageUrl": "https://511ny.org/map/Cctv/5920--36",
    "name": "I-278 at Mosel Avenue",
    "targetCompressionRatio": 35,
    "id": 5060,
    "longitude": -74.086652
  },
  {
    "dateTime": 1675533259228,
    "videoStreamUrl": "https://s52.nysdot.skyvdn.com:443/rtplive/R11_074/playlist.m3u8",
    "latitude": 40.69633,
    "referrer": null,
    "locationId": "NY_NYC",
    "previewImageUrl": "https://511ny.org/map/Cctv/2000--36",
    "name": "I-278 at Navy Street",
    "targetCompressionRatio": 35,
    "id": 5145,
    "longitude": -73.980691
  },
  {
    "dateTime": 1675533259228,
    "videoStreamUrl": "https://s52.nysdot.skyvdn.com:443/rtplive/R11_101/playlist.m3u8",
    "latitude": 40.753818,
    "referrer": null,
    "locationId": "NY_NYC",
    "previewImageUrl": "https://511ny.org/map/Cctv/2007--36",
    "name": "I-278 at Northern Blvd.",
    "targetCompressionRatio": 35,
    "id": 5383,
    "longitude": -73.898692
  },
  {
    "dateTime": 1682775757606,
    "videoStreamUrl": "https://s52.nysdot.skyvdn.com:443/rtplive/R11_224/playlist.m3u8",
    "latitude": 40.666723,
    "referrer": null,
    "locationId": "NY_NYC",
    "previewImageUrl": "https://511ny.org/map/Cctv/6765--36",
    "name": "I-278 at NY27",
    "targetCompressionRatio": 35,
    "id": 8445,
    "longitude": -73.995808
  },
  {
    "dateTime": 1675533259228,
    "videoStreamUrl": "https://s51.nysdot.skyvdn.com:443/rtplive/R11_097/playlist.m3u8",
    "latitude": 40.734763,
    "referrer": null,
    "locationId": "NY_NYC",
    "previewImageUrl": "https://511ny.org/map/Cctv/5817--36",
    "name": "I-278 at ramp to I-495",
    "targetCompressionRatio": 35,
    "id": 4924,
    "longitude": -73.921789
  },
  {
    "dateTime": 1675533259228,
    "videoStreamUrl": "https://s51.nysdot.skyvdn.com:443/rtplive/R11_217/playlist.m3u8",
    "latitude": 40.610089,
    "referrer": null,
    "locationId": "NY_NYC",
    "previewImageUrl": "https://511ny.org/map/Cctv/5917--36",
    "name": "I-278 at Renwick Avenue",
    "targetCompressionRatio": 35,
    "id": 5057,
    "longitude": -74.105929
  },
  {
    "dateTime": 1675533259228,
    "videoStreamUrl": "https://s51.nysdot.skyvdn.com:443/rtplive/R11_211/playlist.m3u8",
    "latitude": 40.615018,
    "referrer": null,
    "locationId": "NY_NYC",
    "previewImageUrl": "https://511ny.org/map/Cctv/5911--36",
    "name": "I-278 at Richmond Avenue",
    "targetCompressionRatio": 35,
    "id": 5051,
    "longitude": -74.157113
  },
  {
    "dateTime": 1675533259228,
    "videoStreamUrl": "https://s51.nysdot.skyvdn.com:443/rtplive/R11_061/playlist.m3u8",
    "latitude": 40.684901,
    "referrer": null,
    "locationId": "NY_NYC",
    "previewImageUrl": "https://511ny.org/map/Cctv/5801--36",
    "name": "I-278 at Sackett Street",
    "targetCompressionRatio": 35,
    "id": 4916,
    "longitude": -74.000988
  },
  {
    "dateTime": 1675533259228,
    "videoStreamUrl": "https://s52.nysdot.skyvdn.com:443/rtplive/R11_073/playlist.m3u8",
    "latitude": 40.699385,
    "referrer": null,
    "locationId": "NY_NYC",
    "previewImageUrl": "https://511ny.org/map/Cctv/1999--36",
    "name": "I-278 at Sands Street",
    "targetCompressionRatio": 35,
    "id": 4904,
    "longitude": -73.983921
  },
  {
    "dateTime": 1675533259228,
    "videoStreamUrl": "https://s51.nysdot.skyvdn.com:443/rtplive/R11_212/playlist.m3u8",
    "latitude": 40.612621,
    "referrer": null,
    "locationId": "NY_NYC",
    "previewImageUrl": "https://511ny.org/map/Cctv/5912--36",
    "name": "I-278 at SIE and MLK Interchange",
    "targetCompressionRatio": 35,
    "id": 5052,
    "longitude": -74.153868
  },
  {
    "dateTime": 1675533259228,
    "videoStreamUrl": "https://s51.nysdot.skyvdn.com:443/rtplive/R11_256/playlist.m3u8",
    "latitude": 40.6113,
    "referrer": null,
    "locationId": "NY_NYC",
    "previewImageUrl": "https://511ny.org/map/Cctv/8304--36",
    "name": "I-278 at Slosson Ave",
    "targetCompressionRatio": 35,
    "id": 5003,
    "longitude": -74.116536
  },
  {
    "dateTime": 1675533259228,
    "videoStreamUrl": "https://s52.nysdot.skyvdn.com:443/rtplive/R11_080/playlist.m3u8",
    "latitude": 40.709063,
    "referrer": null,
    "locationId": "NY_NYC",
    "previewImageUrl": "https://511ny.org/map/Cctv/2006--36",
    "name": "I-278 at South 5th Street",
    "targetCompressionRatio": 35,
    "id": 4906,
    "longitude": -73.957028
  },
  {
    "dateTime": 1675533259228,
    "videoStreamUrl": "https://s51.nysdot.skyvdn.com:443/rtplive/R11_067/playlist.m3u8",
    "latitude": 40.692535,
    "referrer": null,
    "locationId": "NY_NYC",
    "previewImageUrl": "https://511ny.org/map/Cctv/5807--36",
    "name": "I-278 at State Street and Lwr Lvl.",
    "targetCompressionRatio": 35,
    "id": 4920,
    "longitude": -73.999642
  },
  {
    "dateTime": 1675533259228,
    "videoStreamUrl": "https://s51.nysdot.skyvdn.com:443/rtplive/R11_066/playlist.m3u8",
    "latitude": 40.692535,
    "referrer": null,
    "locationId": "NY_NYC",
    "previewImageUrl": "https://511ny.org/map/Cctv/5806--36",
    "name": "I-278 at State Street and Uppr Lvl.",
    "targetCompressionRatio": 35,
    "id": 4919,
    "longitude": -73.999637
  },
  {
    "dateTime": 1675533259228,
    "videoStreamUrl": "https://s53.nysdot.skyvdn.com:443/rtplive/R11_085/playlist.m3u8",
    "latitude": 40.724979,
    "referrer": null,
    "locationId": "NY_NYC",
    "previewImageUrl": "https://511ny.org/map/Cctv/2309--36",
    "name": "I-278 at Stewart Avenue",
    "targetCompressionRatio": 35,
    "id": 4915,
    "longitude": -73.934058
  },
  {
    "dateTime": 1704113852689,
    "videoStreamUrl": "https://s53.nysdot.skyvdn.com:443/rtplive/R11_301/playlist.m3u8",
    "latitude": 40.81772,
    "referrer": null,
    "locationId": "NY_NYC",
    "previewImageUrl": "https://511ny.org/map/Cctv/10332--36",
    "name": "I-278 at Tiffany St",
    "targetCompressionRatio": 35,
    "id": 16025,
    "longitude": -73.893107
  },
  {
    "dateTime": 1675533259228,
    "videoStreamUrl": "https://s53.nysdot.skyvdn.com:443/rtplive/R11_060/playlist.m3u8",
    "latitude": 40.684147,
    "referrer": null,
    "locationId": "NY_NYC",
    "previewImageUrl": "https://511ny.org/map/Cctv/2304--36",
    "name": "I-278 at Union Street and Wall",
    "targetCompressionRatio": 35,
    "id": 4910,
    "longitude": -74.00152
  },
  {
    "dateTime": 1675533259228,
    "videoStreamUrl": "https://s51.nysdot.skyvdn.com:443/rtplive/R11_213/playlist.m3u8",
    "latitude": 40.609321,
    "referrer": null,
    "locationId": "NY_NYC",
    "previewImageUrl": "https://511ny.org/map/Cctv/5913--36",
    "name": "I-278 at Victory Blvd.",
    "targetCompressionRatio": 35,
    "id": 5053,
    "longitude": -74.150406
  },
  {
    "dateTime": 1694196818183,
    "videoStreamUrl": "https://s53.nysdot.skyvdn.com:443/rtplive/R11_209/playlist.m3u8",
    "latitude": 40.621422,
    "referrer": null,
    "locationId": "NY_NYC",
    "previewImageUrl": "https://511ny.org/map/Cctv/5974--36",
    "name": "I-278 at West of South Avenue",
    "targetCompressionRatio": 35,
    "id": 13408,
    "longitude": -74.16926
  },
  {
    "dateTime": 1675533259228,
    "videoStreamUrl": "https://s53.nysdot.skyvdn.com:443/rtplive/R11_208/playlist.m3u8",
    "latitude": 40.622323,
    "referrer": null,
    "locationId": "NY_NYC",
    "previewImageUrl": "https://511ny.org/map/Cctv/5973--36",
    "name": "I-278 at West Shore Expwy and Interchange",
    "targetCompressionRatio": 35,
    "id": 5062,
    "longitude": -74.174917
  },
  {
    "dateTime": 1675533259228,
    "videoStreamUrl": "https://s53.nysdot.skyvdn.com:443/rtplive/R11_292/playlist.m3u8",
    "latitude": 40.822703,
    "referrer": null,
    "locationId": "NY_NYC",
    "previewImageUrl": "https://511ny.org/map/Cctv/9991--36",
    "name": "I-278 at Whittier St",
    "targetCompressionRatio": 35,
    "id": 4928,
    "longitude": -73.885907
  },
  {
    "dateTime": 1675533259228,
    "videoStreamUrl": "https://s51.nysdot.skyvdn.com:443/rtplive/R11_215/playlist.m3u8",
    "latitude": 40.607476,
    "referrer": null,
    "locationId": "NY_NYC",
    "previewImageUrl": "https://511ny.org/map/Cctv/5915--36",
    "name": "I-278 at Woolley Avenue",
    "targetCompressionRatio": 35,
    "id": 5055,
    "longitude": -74.140649
  },
  {
    "dateTime": 1675533259228,
    "videoStreamUrl": "https://s52.nysdot.skyvdn.com:443/rtplive/R11_076/playlist.m3u8",
    "latitude": 40.699898,
    "referrer": null,
    "locationId": "NY_NYC",
    "previewImageUrl": "https://511ny.org/map/Cctv/2002--36",
    "name": "I-278 at Wythe Avenue",
    "targetCompressionRatio": 35,
    "id": 5381,
    "longitude": -73.962065
  },
  {
    "dateTime": 1675533259228,
    "videoStreamUrl": "https://s58.nysdot.skyvdn.com:443/rtplive/TA_002/playlist.m3u8",
    "latitude": 41.05911,
    "referrer": null,
    "locationId": "NY_NYC",
    "previewImageUrl": "https://511ny.org/map/Cctv/9799--43",
    "name": "I-287 at Interchange 1 (Saw Mill River Parkway)",
    "targetCompressionRatio": 35,
    "id": 4334,
    "longitude": -73.82328
  },
  {
    "dateTime": 1675533259228,
    "videoStreamUrl": "https://s58.nysdot.skyvdn.com:443/rtplive/TA_003/playlist.m3u8",
    "latitude": 41.05563,
    "referrer": null,
    "locationId": "NY_NYC",
    "previewImageUrl": "https://511ny.org/map/Cctv/9800--43",
    "name": "I-287 at Interchange 3 (Sprain Brook Pkwy)",
    "targetCompressionRatio": 35,
    "id": 4335,
    "longitude": -73.81012
  },
  {
    "dateTime": 1675533259228,
    "videoStreamUrl": "https://s58.nysdot.skyvdn.com:443/rtplive/TA_004/playlist.m3u8",
    "latitude": 41.04707,
    "referrer": null,
    "locationId": "NY_NYC",
    "previewImageUrl": "https://511ny.org/map/Cctv/9801--43",
    "name": "I-287 at Interchange 4 (Knollwood Road)",
    "targetCompressionRatio": 35,
    "id": 4328,
    "longitude": -73.80424
  },
  {
    "dateTime": 1675533259228,
    "videoStreamUrl": "https://s58.nysdot.skyvdn.com:443/rtplive/TA_005/playlist.m3u8",
    "latitude": 41.04579,
    "referrer": null,
    "locationId": "NY_NYC",
    "previewImageUrl": "https://511ny.org/map/Cctv/9802--43",
    "name": "I-287 at Interchange 5 (Hillside Ave)",
    "targetCompressionRatio": 35,
    "id": 4360,
    "longitude": -73.79263
  },
  {
    "dateTime": 1675533259228,
    "videoStreamUrl": "https://s58.nysdot.skyvdn.com:443/rtplive/TA_007/playlist.m3u8",
    "latitude": 41.04503,
    "referrer": null,
    "locationId": "NY_NYC",
    "previewImageUrl": "https://511ny.org/map/Cctv/9804--43",
    "name": "I-287 at Interchange 6 (North White Plains - Broadway)",
    "targetCompressionRatio": 35,
    "id": 4361,
    "longitude": -73.77176
  },
  {
    "dateTime": 1675533259228,
    "videoStreamUrl": "https://s58.nysdot.skyvdn.com:443/rtplive/TA_008/playlist.m3u8",
    "latitude": 41.0448,
    "referrer": null,
    "locationId": "NY_RU",
    "previewImageUrl": "https://511ny.org/map/Cctv/9805--43",
    "name": "I-287 at Interchange 7 (North White Plains - Taconic State Pkwy)",
    "targetCompressionRatio": 35,
    "id": 4362,
    "longitude": -73.76441
  },
  {
    "dateTime": 1675533259228,
    "videoStreamUrl": "https://s58.nysdot.skyvdn.com:443/rtplive/TA_010/playlist.m3u8",
    "latitude": 41.03282,
    "referrer": null,
    "locationId": "NY_RU",
    "previewImageUrl": "https://511ny.org/map/Cctv/9807--43",
    "name": "I-287 at Interchange 8 (White Plains - Westchester Ave)",
    "targetCompressionRatio": 35,
    "id": 4212,
    "longitude": -73.75333
  },
  {
    "dateTime": 1675533259228,
    "videoStreamUrl": "https://s58.nysdot.skyvdn.com:443/rtplive/TA_001/playlist.m3u8",
    "latitude": 41.05757,
    "referrer": null,
    "locationId": "NY_NYC",
    "previewImageUrl": "https://511ny.org/map/Cctv/9798--43",
    "name": "I-287 CWE at I-87 Interchange 8",
    "targetCompressionRatio": 35,
    "id": 4230,
    "longitude": -73.83243
  },
  {
    "dateTime": 1675533259228,
    "videoStreamUrl": "https://s58.nysdot.skyvdn.com:443/rtplive/TA_009/playlist.m3u8",
    "latitude": 41.04093,
    "referrer": null,
    "locationId": "NY_RU",
    "previewImageUrl": "https://511ny.org/map/Cctv/9806--43",
    "name": "I-287 east of Interchange 7 (North White Plains - Taconic State Pkwy)",
    "targetCompressionRatio": 35,
    "id": 4211,
    "longitude": -73.76253
  },
  {
    "dateTime": 1675533259228,
    "videoStreamUrl": "https://s58.nysdot.skyvdn.com:443/rtplive/TA_006/playlist.m3u8",
    "latitude": 41.04242,
    "referrer": null,
    "locationId": "NY_NYC",
    "previewImageUrl": "https://511ny.org/map/Cctv/9803--43",
    "name": "I-287 Just East of Interchange 5 (Route 119)",
    "targetCompressionRatio": 35,
    "id": 4329,
    "longitude": -73.78608
  },
  {
    "dateTime": 1675533259228,
    "videoStreamUrl": "https://s58.nysdot.skyvdn.com:443/rtplive/TA_178/playlist.m3u8",
    "latitude": 41.04707,
    "referrer": null,
    "locationId": "NY_NYC",
    "previewImageUrl": "https://511ny.org/map/Cctv/9972--43",
    "name": "I-287 WB 1.8 at Exit 4.",
    "targetCompressionRatio": 35,
    "id": 5197,
    "longitude": -73.80424
  },